<?xml version='1.0' encoding='utf8'?>
<data><airport airport-name="GOROKA" alt="1610" city="GOROKA" country="PAPUA NEW GUINEA" iata="GKA" icao="AYGA" lat_dec="-6.082000000000001" lat_deg="6" lat_dir="S" lat_min="4" lat_sec="54" lon_dec="145.392" lon_deg="145" lon_dir="E" lon_min="23" lon_sec="30" /><airport airport-name="nan" alt="0" city="LAE" country="PAPUA NEW GUINEA" iata="LAE" icao="AYLA" lat_dec="0.0" lat_deg="0" lat_dir="U" lat_min="0" lat_sec="0" lon_dec="0.0" lon_deg="0" lon_dir="U" lon_min="0" lon_sec="0" /><airport airport-name="MADANG" alt="7" city="MADANG" country="PAPUA NEW GUINEA" iata="MAG" icao="AYMD" lat_dec="-5.207000000000001" lat_deg="5" lat_dir="S" lat_min="12" lat_sec="25" lon_dec="145.789" lon_deg="145" lon_dir="E" lon_min="47" lon_sec="19" /><airport airport-name="MOUNT HAGEN" alt="1643" city="MOUNT HAGEN" country="PAPUA NEW GUINEA" iata="HGU" icao="AYMH" lat_dec="-5.8260000000000005" lat_deg="5" lat_dir="S" lat_min="49" lat_sec="34" lon_dec="144.296" lon_deg="144" lon_dir="E" lon_min="17" lon_sec="46" /><airport airport-name="NADZAB" alt="73" city="NADZAB" country="PAPUA NEW GUINEA" iata="LAE" icao="AYNZ" lat_dec="-6.57" lat_deg="6" lat_dir="S" lat_min="34" lat_sec="11" lon_dec="146.726" lon_deg="146" lon_dir="E" lon_min="43" lon_sec="34" /><airport airport-name="PORT MORESBY JACKSONS INTERNATIONAL" alt="45" city="PORT MORESBY" country="PAPUA NEW GUINEA" iata="POM" icao="AYPY" lat_dec="-9.443" lat_deg="9" lat_dir="S" lat_min="26" lat_sec="36" lon_dec="147.22" lon_deg="147" lon_dir="E" lon_min="13" lon_sec="12" /><airport airport-name="nan" alt="0" city="RABAUL" country="PAPUA NEW GUINEA" iata="RAB" icao="AYRB" lat_dec="0.0" lat_deg="0" lat_dir="U" lat_min="0" lat_sec="0" lon_dec="0.0" lon_deg="0" lon_dir="U" lon_min="0" lon_sec="0" /><airport airport-name="WEWAK INTERNATIONAL" alt="6" city="WEWAK" country="PAPUA NEW GUINEA" iata="WWK" icao="AYWK" lat_dec="-3.5839999999999996" lat_deg="3" lat_dir="S" lat_min="35" lat_sec="1" lon_dec="143.66899999999998" lon_deg="143" lon_dir="E" lon_min="40" lon_sec="9" /><airport airport-name="nan" alt="0" city="ANGMAGSSALIK" country="GREENLAND" iata="nan" icao="BGAM" lat_dec="0.0" lat_deg="0" lat_dir="U" lat_min="0" lat_sec="0" lon_dec="0.0" lon_deg="0" lon_dir="U" lon_min="0" lon_sec="0" /><airport airport-name="nan" alt="0" city="ANGISSOQ" country="GREENLAND" iata="nan" icao="BGAS" lat_dec="0.0" lat_deg="0" lat_dir="U" lat_min="0" lat_sec="0" lon_dec="0.0" lon_deg="0" lon_dir="U" lon_min="0" lon_sec="0" /><airport airport-name="nan" alt="0" city="APUTITEQ" country="GREENLAND" iata="nan" icao="BGAT" lat_dec="0.0" lat_deg="0" lat_dir="U" lat_min="0" lat_sec="0" lon_dec="0.0" lon_deg="0" lon_dir="U" lon_min="0" lon_sec="0" /><airport airport-name="NARSARSUAQ" alt="35" city="NARSSARSSUAQ" country="GREENLAND" iata="UAK" icao="BGBW" lat_dec="61.161" lat_deg="61" lat_dir="N" lat_min="9" lat_sec="40" lon_dec="-45.427" lon_deg="45" lon_dir="W" lon_min="25" lon_sec="39" /><airport airport-name="nan" alt="0" city="CHRISTIANSHAAB" country="GREENLAND" iata="JCH" icao="BGCH" lat_dec="0.0" lat_deg="0" lat_dir="U" lat_min="0" lat_sec="0" lon_dec="0.0" lon_deg="0" lon_dir="U" lon_min="0" lon_sec="0" /><airport airport-name="NERLERIT INAAT CONSTABLE PYNT" alt="14" city="NERLERIT INAAT" country="GREENLAND" iata="nan" icao="BGCO" lat_dec="70.73899999999999" lat_deg="70" lat_dir="N" lat_min="44" lat_sec="22" lon_dec="-22.646" lon_deg="22" lon_dir="W" lon_min="38" lon_sec="45" /><airport airport-name="nan" alt="0" city="DANEBORG" country="GREENLAND" iata="nan" icao="BGDB" lat_dec="0.0" lat_deg="0" lat_dir="U" lat_min="0" lat_sec="0" lon_dec="0.0" lon_deg="0" lon_dir="U" lon_min="0" lon_sec="0" /><airport airport-name="nan" alt="0" city="DANMARKSHAVN" country="GREENLAND" iata="nan" icao="BGDH" lat_dec="0.0" lat_deg="0" lat_dir="U" lat_min="0" lat_sec="0" lon_dec="0.0" lon_deg="0" lon_dir="U" lon_min="0" lon_sec="0" /><airport airport-name="nan" alt="0" city="DUNDAS" country="GREENLAND" iata="nan" icao="BGDU" lat_dec="0.0" lat_deg="0" lat_dir="U" lat_min="0" lat_sec="0" lon_dec="0.0" lon_deg="0" lon_dir="U" lon_min="0" lon_sec="0" /><airport airport-name="nan" alt="0" city="EGEDESMINDE" country="GREENLAND" iata="JEG" icao="BGEM" lat_dec="0.0" lat_deg="0" lat_dir="U" lat_min="0" lat_sec="0" lon_dec="0.0" lon_deg="0" lon_dir="U" lon_min="0" lon_sec="0" /><airport airport-name="nan" alt="0" city="FREDERIKSDAL" country="GREENLAND" iata="nan" icao="BGFD" lat_dec="0.0" lat_deg="0" lat_dir="U" lat_min="0" lat_sec="0" lon_dec="0.0" lon_deg="0" lon_dir="U" lon_min="0" lon_sec="0" /><airport airport-name="nan" alt="0" city="FREDERIKSHAAB" country="GREENLAND" iata="JFR" icao="BGFH" lat_dec="0.0" lat_deg="0" lat_dir="U" lat_min="0" lat_sec="0" lon_dec="0.0" lon_deg="0" lon_dir="U" lon_min="0" lon_sec="0" /><airport airport-name="nan" alt="0" city="GRONNEDAL" country="GREENLAND" iata="JGR" icao="BGGD" lat_dec="0.0" lat_deg="0" lat_dir="U" lat_min="0" lat_sec="0" lon_dec="0.0" lon_deg="0" lon_dir="U" lon_min="0" lon_sec="0" /><airport airport-name="NUUK" alt="87" city="GODTHAAB" country="GREENLAND" iata="GOH" icao="BGGH" lat_dec="64.191" lat_deg="64" lat_dir="N" lat_min="11" lat_sec="27" lon_dec="-51.678000000000004" lon_deg="51" lon_dir="W" lon_min="40" lon_sec="41" /><airport airport-name="nan" alt="0" city="GODHAVN" country="GREENLAND" iata="JGO" icao="BGGN" lat_dec="0.0" lat_deg="0" lat_dir="U" lat_min="0" lat_sec="0" lon_dec="0.0" lon_deg="0" lon_dir="U" lon_min="0" lon_sec="0" /><airport airport-name="nan" alt="0" city="HOLSTEINSBORG" country="GREENLAND" iata="JHS" icao="BGHB" lat_dec="0.0" lat_deg="0" lat_dir="U" lat_min="0" lat_sec="0" lon_dec="0.0" lon_deg="0" lon_dir="U" lon_min="0" lon_sec="0" /><airport airport-name="nan" alt="0" city="ISORTOQ" country="GREENLAND" iata="nan" icao="BGIS" lat_dec="0.0" lat_deg="0" lat_dir="U" lat_min="0" lat_sec="0" lon_dec="0.0" lon_deg="0" lon_dir="U" lon_min="0" lon_sec="0" /><airport airport-name="nan" alt="0" city="IVIGTUT" country="GREENLAND" iata="nan" icao="BGIT" lat_dec="0.0" lat_deg="0" lat_dir="U" lat_min="0" lat_sec="0" lon_dec="0.0" lon_deg="0" lon_dir="U" lon_min="0" lon_sec="0" /><airport airport-name="nan" alt="0" city="JULIANEHAAB" country="GREENLAND" iata="JJU" icao="BGJH" lat_dec="0.0" lat_deg="0" lat_dir="U" lat_min="0" lat_sec="0" lon_dec="0.0" lon_deg="0" lon_dir="U" lon_min="0" lon_sec="0" /><airport airport-name="JACOBSHAVN" alt="34" city="JAKOBSHAVN" country="GREENLAND" iata="JAV" icao="BGJN" lat_dec="69.233" lat_deg="69" lat_dir="N" lat_min="14" lat_sec="0" lon_dec="-51.067" lon_deg="51" lon_dir="W" lon_min="4" lon_sec="0" /><airport airport-name="nan" alt="0" city="KAP DAN" country="GREENLAND" iata="nan" icao="BGKD" lat_dec="0.0" lat_deg="0" lat_dir="U" lat_min="0" lat_sec="0" lon_dec="0.0" lon_deg="0" lon_dir="U" lon_min="0" lon_sec="0" /><airport airport-name="KULUSUK" alt="34" city="KULUSUK" country="GREENLAND" iata="KUS" icao="BGKK" lat_dec="65.583" lat_deg="65" lat_dir="N" lat_min="35" lat_sec="0" lon_dec="-37.15" lon_deg="37" lon_dir="W" lon_min="9" lon_sec="0" /><airport airport-name="nan" alt="0" city="KUNGMIUT" country="GREENLAND" iata="nan" icao="BGKM" lat_dec="0.0" lat_deg="0" lat_dir="U" lat_min="0" lat_sec="0" lon_dec="0.0" lon_deg="0" lon_dir="U" lon_min="0" lon_sec="0" /><airport airport-name="nan" alt="0" city="KAP TOBIN" country="GREENLAND" iata="nan" icao="BGKT" lat_dec="0.0" lat_deg="0" lat_dir="U" lat_min="0" lat_sec="0" lon_dec="0.0" lon_deg="0" lon_dir="U" lon_min="0" lon_sec="0" /><airport airport-name="nan" alt="0" city="MESTERS VIG" country="GREENLAND" iata="nan" icao="BGMV" lat_dec="0.0" lat_deg="0" lat_dir="U" lat_min="0" lat_sec="0" lon_dec="0.0" lon_deg="0" lon_dir="U" lon_min="0" lon_sec="0" /><airport airport-name="nan" alt="0" city="NANORTALIK" country="GREENLAND" iata="JNN" icao="BGNN" lat_dec="0.0" lat_deg="0" lat_dir="U" lat_min="0" lat_sec="0" lon_dec="0.0" lon_deg="0" lon_dir="U" lon_min="0" lon_sec="0" /><airport airport-name="nan" alt="0" city="NARSSAQ" country="GREENLAND" iata="JNS" icao="BGNS" lat_dec="0.0" lat_deg="0" lat_dir="U" lat_min="0" lat_sec="0" lon_dec="0.0" lon_deg="0" lon_dir="U" lon_min="0" lon_sec="0" /><airport airport-name="nan" alt="0" city="ORSSUIORSSUAQ" country="GREENLAND" iata="nan" icao="BGOS" lat_dec="0.0" lat_deg="0" lat_dir="U" lat_min="0" lat_sec="0" lon_dec="0.0" lon_deg="0" lon_dir="U" lon_min="0" lon_sec="0" /><airport airport-name="nan" alt="0" city="PRINS CHRISTIAN SUND" country="GREENLAND" iata="nan" icao="BGPC" lat_dec="0.0" lat_deg="0" lat_dir="U" lat_min="0" lat_sec="0" lon_dec="0.0" lon_deg="0" lon_dir="U" lon_min="0" lon_sec="0" /><airport airport-name="nan" alt="0" city="RAVNS STORO" country="GREENLAND" iata="nan" icao="BGRS" lat_dec="0.0" lat_deg="0" lat_dir="U" lat_min="0" lat_sec="0" lon_dec="0.0" lon_deg="0" lon_dir="U" lon_min="0" lon_sec="0" /><airport airport-name="nan" alt="0" city="SCORESBYSUND" country="GREENLAND" iata="nan" icao="BGSC" lat_dec="0.0" lat_deg="0" lat_dir="U" lat_min="0" lat_sec="0" lon_dec="0.0" lon_deg="0" lon_dir="U" lon_min="0" lon_sec="0" /><airport airport-name="KANGERLUSSUAQ SONDRE STROMFJORD" alt="51" city="SONDRESTROM" country="GREENLAND" iata="SFJ" icao="BGSF" lat_dec="67.017" lat_deg="67" lat_dir="N" lat_min="1" lat_sec="1" lon_dec="-50.68899999999999" lon_deg="50" lon_dir="W" lon_min="41" lon_sec="21" /><airport airport-name="nan" alt="0" city="SERMILIGAO" country="GREENLAND" iata="nan" icao="BGSG" lat_dec="0.0" lat_deg="0" lat_dir="U" lat_min="0" lat_sec="0" lon_dec="0.0" lon_deg="0" lon_dir="U" lon_min="0" lon_sec="0" /><airport airport-name="nan" alt="0" city="SUKKERTOPPEN" country="GREENLAND" iata="JSU" icao="BGST" lat_dec="0.0" lat_deg="0" lat_dir="U" lat_min="0" lat_sec="0" lon_dec="0.0" lon_deg="0" lon_dir="U" lon_min="0" lon_sec="0" /><airport airport-name="THULE AIR BASE" alt="77" city="THULE" country="GREENLAND" iata="THU" icao="BGTL" lat_dec="76.531" lat_deg="76" lat_dir="N" lat_min="31" lat_sec="52" lon_dec="-68.703" lon_deg="68" lon_dir="W" lon_min="42" lon_sec="11" /><airport airport-name="nan" alt="0" city="TINGMIARMIUT" country="GREENLAND" iata="nan" icao="BGTM" lat_dec="0.0" lat_deg="0" lat_dir="U" lat_min="0" lat_sec="0" lon_dec="0.0" lon_deg="0" lon_dir="U" lon_min="0" lon_sec="0" /><airport airport-name="nan" alt="0" city="TINITEQILAQ" country="GREENLAND" iata="nan" icao="BGTN" lat_dec="0.0" lat_deg="0" lat_dir="U" lat_min="0" lat_sec="0" lon_dec="0.0" lon_deg="0" lon_dir="U" lon_min="0" lon_sec="0" /><airport airport-name="nan" alt="0" city="UMANAK" country="GREENLAND" iata="nan" icao="BGUM" lat_dec="0.0" lat_deg="0" lat_dir="U" lat_min="0" lat_sec="0" lon_dec="0.0" lon_deg="0" lon_dir="U" lon_min="0" lon_sec="0" /><airport airport-name="nan" alt="0" city="UPERNAVIK" country="GREENLAND" iata="JUV" icao="BGUP" lat_dec="0.0" lat_deg="0" lat_dir="U" lat_min="0" lat_sec="0" lon_dec="0.0" lon_deg="0" lon_dir="U" lon_min="0" lon_sec="0" /><airport airport-name="AKUREYRI" alt="2" city="AKUREYRI" country="ICELAND" iata="AEY" icao="BIAR" lat_dec="65.66" lat_deg="65" lat_dir="N" lat_min="39" lat_sec="35" lon_dec="-18.072" lon_deg="18" lon_dir="W" lon_min="4" lon_sec="21" /><airport airport-name="nan" alt="0" city="BLONDUOS" country="ICELAND" iata="nan" icao="BIBL" lat_dec="0.0" lat_deg="0" lat_dir="U" lat_min="0" lat_sec="0" lon_dec="0.0" lon_deg="0" lon_dir="U" lon_min="0" lon_sec="0" /><airport airport-name="nan" alt="0" city="DJUOIVOGUR" country="ICELAND" iata="nan" icao="BIDV" lat_dec="0.0" lat_deg="0" lat_dir="U" lat_min="0" lat_sec="0" lon_dec="0.0" lon_deg="0" lon_dir="U" lon_min="0" lon_sec="0" /><airport airport-name="EGILSSTADIR" alt="24" city="EGILSSTADIR" country="ICELAND" iata="EGS" icao="BIEG" lat_dec="65.283" lat_deg="65" lat_dir="N" lat_min="17" lat_sec="0" lon_dec="-14.401" lon_deg="14" lon_dir="W" lon_min="24" lon_sec="5" /><airport airport-name="nan" alt="0" city="FAGURHOLSMYRI" country="ICELAND" iata="nan" icao="BIFM" lat_dec="0.0" lat_deg="0" lat_dir="U" lat_min="0" lat_sec="0" lon_dec="0.0" lon_deg="0" lon_dir="U" lon_min="0" lon_sec="0" /><airport airport-name="nan" alt="0" city="GRIMSEY" country="ICELAND" iata="GRY" icao="BIGR" lat_dec="0.0" lat_deg="0" lat_dir="U" lat_min="0" lat_sec="0" lon_dec="0.0" lon_deg="0" lon_dir="U" lon_min="0" lon_sec="0" /><airport airport-name="HORNAFJORDUR" alt="8" city="HOFN" country="ICELAND" iata="HFN" icao="BIHN" lat_dec="64.296" lat_deg="64" lat_dir="N" lat_min="17" lat_sec="44" lon_dec="-15.227" lon_deg="15" lon_dir="W" lon_min="13" lon_sec="38" /><airport airport-name="HUSAVIK" alt="14" city="HUSAVIK" country="ICELAND" iata="HZK" icao="BIHU" lat_dec="65.952" lat_deg="65" lat_dir="N" lat_min="57" lat_sec="8" lon_dec="-17.426" lon_deg="17" lon_dir="W" lon_min="25" lon_sec="33" /><airport airport-name="ISAFJORDUR" alt="3" city="ISAFJORDUR" country="ICELAND" iata="IFJ" icao="BIIS" lat_dec="66.058" lat_deg="66" lat_dir="N" lat_min="3" lat_sec="29" lon_dec="-23.135" lon_deg="23" lon_dir="W" lon_min="8" lon_sec="7" /><airport airport-name="KEFLAVIK NAS" alt="53" city="KEFLAVIK" country="ICELAND" iata="KEF" icao="BIKF" lat_dec="63.985" lat_deg="63" lat_dir="N" lat_min="59" lat_sec="6" lon_dec="-22.605999999999998" lon_deg="22" lon_dir="W" lon_min="36" lon_sec="20" /><airport airport-name="KOPASKER" alt="7" city="KOPASKER" country="ICELAND" iata="OPA" icao="BIKP" lat_dec="66.314" lat_deg="66" lat_dir="N" lat_min="18" lat_sec="49" lon_dec="-16.461" lon_deg="16" lon_dir="W" lon_min="27" lon_sec="40" /><airport airport-name="nan" alt="0" city="SAUDARKROKUR" country="ICELAND" iata="SAK" icao="BIKR" lat_dec="0.0" lat_deg="0" lat_dir="U" lat_min="0" lat_sec="0" lon_dec="0.0" lon_deg="0" lon_dir="U" lon_min="0" lon_sec="0" /><airport airport-name="nan" alt="0" city="NORDFJORDUR" country="ICELAND" iata="NOR" icao="BINF" lat_dec="0.0" lat_deg="0" lat_dir="U" lat_min="0" lat_sec="0" lon_dec="0.0" lon_deg="0" lon_dir="U" lon_min="0" lon_sec="0" /><airport airport-name="PATREKSFJORDUR" alt="4" city="PATREKSFJORDUR" country="ICELAND" iata="PFJ" icao="BIPA" lat_dec="65.556" lat_deg="65" lat_dir="N" lat_min="33" lat_sec="21" lon_dec="-23.965" lon_deg="23" lon_dir="W" lon_min="57" lon_sec="54" /><airport airport-name="nan" alt="0" city="RAUFARHOFN" country="ICELAND" iata="RFN" icao="BIRG" lat_dec="0.0" lat_deg="0" lat_dir="U" lat_min="0" lat_sec="0" lon_dec="0.0" lon_deg="0" lon_dir="U" lon_min="0" lon_sec="0" /><airport airport-name="REYKJAVIK" alt="15" city="REYKJAVIK" country="ICELAND" iata="RKV" icao="BIRK" lat_dec="64.13" lat_deg="64" lat_dir="N" lat_min="7" lat_sec="48" lon_dec="-21.941" lon_deg="21" lon_dir="W" lon_min="56" lon_sec="26" /><airport airport-name="SIGLUFJORDHUR" alt="4" city="SIGLUFJORDUR" country="ICELAND" iata="SIJ" icao="BISI" lat_dec="66.133" lat_deg="66" lat_dir="N" lat_min="8" lat_sec="0" lon_dec="-18.917" lon_deg="18" lon_dir="W" lon_min="55" lon_sec="0" /><airport airport-name="nan" alt="0" city="SANDSKEID" country="ICELAND" iata="nan" icao="BISS" lat_dec="0.0" lat_deg="0" lat_dir="U" lat_min="0" lat_sec="0" lon_dec="0.0" lon_deg="0" lon_dir="U" lon_min="0" lon_sec="0" /><airport airport-name="nan" alt="0" city="STYKKISHOLMUR" country="ICELAND" iata="nan" icao="BIST" lat_dec="0.0" lat_deg="0" lat_dir="U" lat_min="0" lat_sec="0" lon_dec="0.0" lon_deg="0" lon_dir="U" lon_min="0" lon_sec="0" /><airport airport-name="nan" alt="0" city="THINGEYRI" country="ICELAND" iata="TEY" icao="BITE" lat_dec="0.0" lat_deg="0" lat_dir="U" lat_min="0" lat_sec="0" lon_dec="0.0" lon_deg="0" lon_dir="U" lon_min="0" lon_sec="0" /><airport airport-name="nan" alt="0" city="THORSHOFN" country="ICELAND" iata="THO" icao="BITH" lat_dec="0.0" lat_deg="0" lat_dir="U" lat_min="0" lat_sec="0" lon_dec="0.0" lon_deg="0" lon_dir="U" lon_min="0" lon_sec="0" /><airport airport-name="VESTMANNAEYJAR" alt="100" city="VESTMANNAEYJAR" country="ICELAND" iata="VEY" icao="BIVM" lat_dec="63.424" lat_deg="63" lat_dir="N" lat_min="25" lat_sec="27" lon_dec="-20.279" lon_deg="20" lon_dir="W" lon_min="16" lon_sec="43" /><airport airport-name="nan" alt="0" city="VOPNAFJORDUR" country="ICELAND" iata="VPN" icao="BIVO" lat_dec="0.0" lat_deg="0" lat_dir="U" lat_min="0" lat_sec="0" lon_dec="0.0" lon_deg="0" lon_dir="U" lon_min="0" lon_sec="0" /><airport airport-name="nan" alt="0" city="GODLEY" country="NEW ZEALAND" iata="nan" icao="BZGD" lat_dec="0.0" lat_deg="0" lat_dir="U" lat_min="0" lat_sec="0" lon_dec="0.0" lon_deg="0" lon_dir="U" lon_min="0" lon_sec="0" /><airport airport-name="nan" alt="0" city="ACTIVE PASS" country="CANADA" iata="nan" icao="CUAP" lat_dec="0.0" lat_deg="0" lat_dir="U" lat_min="0" lat_sec="0" lon_dec="0.0" lon_deg="0" lon_dir="U" lon_min="0" lon_sec="0" /><airport airport-name="nan" alt="0" city="QUAQTAQ" country="CANADA" iata="YQC" icao="CUHA" lat_dec="0.0" lat_deg="0" lat_dir="U" lat_min="0" lat_sec="0" lon_dec="0.0" lon_deg="0" lon_dir="U" lon_min="0" lon_sec="0" /><airport airport-name="nan" alt="0" city="STIRLING" country="CANADA" iata="nan" icao="CUQC" lat_dec="0.0" lat_deg="0" lat_dir="U" lat_min="0" lat_sec="0" lon_dec="0.0" lon_deg="0" lon_dir="U" lon_min="0" lon_sec="0" /><airport airport-name="nan" alt="0" city="OTTAWA" country="CANADA" iata="nan" icao="CUUP" lat_dec="0.0" lat_deg="0" lat_dir="U" lat_min="0" lat_sec="0" lon_dec="0.0" lon_deg="0" lon_dir="U" lon_min="0" lon_sec="0" /><airport airport-name="nan" alt="0" city="BATTLE HARBOUR" country="CANADA" iata="nan" icao="CWBF" lat_dec="0.0" lat_deg="0" lat_dir="U" lat_min="0" lat_sec="0" lon_dec="0.0" lon_deg="0" lon_dir="U" lon_min="0" lon_sec="0" /><airport airport-name="nan" alt="0" city="HOLBERG" country="CANADA" iata="nan" icao="CWHJ" lat_dec="0.0" lat_deg="0" lat_dir="U" lat_min="0" lat_sec="0" lon_dec="0.0" lon_deg="0" lon_dir="U" lon_min="0" lon_sec="0" /><airport airport-name="nan" alt="0" city="SIMCOE" country="CANADA" iata="nan" icao="CWMK" lat_dec="0.0" lat_deg="0" lat_dir="U" lat_min="0" lat_sec="0" lon_dec="0.0" lon_deg="0" lon_dir="U" lon_min="0" lon_sec="0" /><airport airport-name="nan" alt="0" city="MOUNT FOREST" country="CANADA" iata="nan" icao="CWMN" lat_dec="0.0" lat_deg="0" lat_dir="U" lat_min="0" lat_sec="0" lon_dec="0.0" lon_deg="0" lon_dir="U" lon_min="0" lon_sec="0" /><airport airport-name="nan" alt="0" city="SAINTE AGATHE" country="CANADA" iata="nan" icao="CWOH" lat_dec="0.0" lat_deg="0" lat_dir="U" lat_min="0" lat_sec="0" lon_dec="0.0" lon_deg="0" lon_dir="U" lon_min="0" lon_sec="0" /><airport airport-name="nan" alt="0" city="PINCHER CREEK" country="CANADA" iata="nan" icao="CWPC" lat_dec="0.0" lat_deg="0" lat_dir="U" lat_min="0" lat_sec="0" lon_dec="0.0" lon_deg="0" lon_dir="U" lon_min="0" lon_sec="0" /><airport airport-name="nan" alt="0" city="PILOT MOUNT" country="CANADA" iata="nan" icao="CWPO" lat_dec="0.0" lat_deg="0" lat_dir="U" lat_min="0" lat_sec="0" lon_dec="0.0" lon_deg="0" lon_dir="U" lon_min="0" lon_sec="0" /><airport airport-name="nan" alt="0" city="BONAVISTA" country="CANADA" iata="nan" icao="CWVA" lat_dec="0.0" lat_deg="0" lat_dir="U" lat_min="0" lat_sec="0" lon_dec="0.0" lon_deg="0" lon_dir="U" lon_min="0" lon_sec="0" /><airport airport-name="nan" alt="0" city="ARCTIC BAY" country="CANADA" iata="YAB" icao="CYAB" lat_dec="0.0" lat_deg="0" lat_dir="U" lat_min="0" lat_sec="0" lon_dec="0.0" lon_deg="0" lon_dir="U" lon_min="0" lon_sec="0" /><airport airport-name="nan" alt="0" city="KOMAKUK" country="CANADA" iata="nan" icao="CYAJ" lat_dec="0.0" lat_deg="0" lat_dir="U" lat_min="0" lat_sec="0" lon_dec="0.0" lon_deg="0" lon_dir="U" lon_min="0" lon_sec="0" /><airport airport-name="nan" alt="0" city="ALERT BAY" country="CANADA" iata="YAL" icao="CYAL" lat_dec="0.0" lat_deg="0" lat_dir="U" lat_min="0" lat_sec="0" lon_dec="0.0" lon_deg="0" lon_dir="U" lon_min="0" lon_sec="0" /><airport airport-name="SAULT STE MARIE" alt="193" city="SAULT SAINTE MARIE" country="CANADA" iata="YAM" icao="CYAM" lat_dec="46.485" lat_deg="46" lat_dir="N" lat_min="29" lat_sec="6" lon_dec="-84.509" lon_deg="84" lon_dir="W" lon_min="30" lon_sec="34" /><airport airport-name="WINNIPEG ST ANDREWS" alt="232" city="WINNIPEG" country="CANADA" iata="YAV" icao="CYAV" lat_dec="50.056000000000004" lat_deg="50" lat_dir="N" lat_min="3" lat_sec="23" lon_dec="-97.03200000000001" lon_deg="97" lon_dir="W" lon_min="1" lon_sec="57" /><airport airport-name="SHEARWATER" alt="51" city="HALIFAX" country="CANADA" iata="YAW" icao="CYAW" lat_dec="44.64" lat_deg="44" lat_dir="N" lat_min="38" lat_sec="23" lon_dec="-63.498999999999995" lon_deg="63" lon_dir="W" lon_min="29" lon_sec="58" /><airport airport-name="ST ANTHONY" alt="29" city="ST. ANTHONY" country="CANADA" iata="YAY" icao="CYAY" lat_dec="51.391999999999996" lat_deg="51" lat_dir="N" lat_min="23" lat_sec="30" lon_dec="-56.083999999999996" lon_deg="56" lon_dir="W" lon_min="5" lon_sec="4" /><airport airport-name="TOFINO" alt="25" city="TOFINO" country="CANADA" iata="YAZ" icao="CYAZ" lat_dec="49.082" lat_deg="49" lat_dir="N" lat_min="4" lat_sec="56" lon_dec="-125.772" lon_deg="125" lon_dir="W" lon_min="46" lon_sec="21" /><airport airport-name="nan" alt="0" city="BANFF" country="CANADA" iata="nan" icao="CYBA" lat_dec="0.0" lat_deg="0" lat_dir="U" lat_min="0" lat_sec="0" lon_dec="0.0" lon_deg="0" lon_dir="U" lon_min="0" lon_sec="0" /><airport airport-name="KUGAARUK" alt="18" city="PELLY BAY" country="CANADA" iata="YBB" icao="CYBB" lat_dec="68.53399999999999" lat_deg="68" lat_dir="N" lat_min="32" lat_sec="4" lon_dec="-89.80799999999999" lon_deg="89" lon_dir="W" lon_min="48" lon_sec="29" /><airport airport-name="BAIE COMEAU" alt="22" city="BAIE COMEAU" country="CANADA" iata="YBC" icao="CYBC" lat_dec="49.132" lat_deg="49" lat_dir="N" lat_min="7" lat_sec="56" lon_dec="-68.207" lon_deg="68" lon_dir="W" lon_min="12" lon_sec="26" /><airport airport-name="BAGOTVILLE" alt="160" city="BAGOTVILLE" country="CANADA" iata="YBG" icao="CYBG" lat_dec="48.331" lat_deg="48" lat_dir="N" lat_min="19" lat_sec="50" lon_dec="-70.99600000000001" lon_deg="70" lon_dir="W" lon_min="59" lon_sec="47" /><airport airport-name="BAKER LAKE" alt="18" city="BAKER LAKE" country="CANADA" iata="YBK" icao="CYBK" lat_dec="64.29899999999999" lat_deg="64" lat_dir="N" lat_min="17" lat_sec="56" lon_dec="-96.07799999999999" lon_deg="96" lon_dir="W" lon_min="4" lon_sec="40" /><airport airport-name="CAMPBELL RIVER" alt="106" city="CAMPBELL RIVER" country="CANADA" iata="YBL" icao="CYBL" lat_dec="49.951" lat_deg="49" lat_dir="N" lat_min="57" lat_sec="3" lon_dec="-125.271" lon_deg="125" lon_dir="W" lon_min="16" lon_sec="15" /><airport airport-name="BRANDON MUNI" alt="410" city="BRANDON" country="CANADA" iata="YBR" icao="CYBR" lat_dec="49.91" lat_deg="49" lat_dir="N" lat_min="54" lat_sec="36" lon_dec="-99.95200000000001" lon_deg="99" lon_dir="W" lon_min="57" lon_sec="7" /><airport airport-name="nan" alt="0" city="BROCHET" country="CANADA" iata="YBT" icao="CYBT" lat_dec="0.0" lat_deg="0" lat_dir="U" lat_min="0" lat_sec="0" lon_dec="0.0" lon_deg="0" lon_dir="U" lon_min="0" lon_sec="0" /><airport airport-name="nan" alt="0" city="CARTWRIGHT" country="CANADA" iata="YRF" icao="CYCA" lat_dec="0.0" lat_deg="0" lat_dir="U" lat_min="0" lat_sec="0" lon_dec="0.0" lon_deg="0" lon_dir="U" lon_min="0" lon_sec="0" /><airport airport-name="CAMBRIDGE BAY" alt="28" city="CAMBRIDGE BAY" country="CANADA" iata="YCB" icao="CYCB" lat_dec="69.108" lat_deg="69" lat_dir="N" lat_min="6" lat_sec="29" lon_dec="-105.13799999999999" lon_deg="105" lon_dir="W" lon_min="8" lon_sec="18" /><airport airport-name="NANAIMO" alt="29" city="NANAIMO" country="CANADA" iata="YCD" icao="CYCD" lat_dec="49.052" lat_deg="49" lat_dir="N" lat_min="3" lat_sec="8" lon_dec="-123.87" lon_deg="123" lon_dir="W" lon_min="52" lon_sec="12" /><airport airport-name="CASTLEGAR" alt="495" city="CASTLEGAR" country="CANADA" iata="YCG" icao="CYCG" lat_dec="49.29600000000001" lat_deg="49" lat_dir="N" lat_min="17" lat_sec="47" lon_dec="-117.632" lon_deg="117" lon_dir="W" lon_min="37" lon_sec="57" /><airport airport-name="MIRAMICHI" alt="33" city="CHATHAM" country="CANADA" iata="YCH" icao="CYCH" lat_dec="47.008" lat_deg="47" lat_dir="N" lat_min="0" lat_sec="28" lon_dec="-65.449" lon_deg="65" lon_dir="W" lon_min="26" lon_sec="57" /><airport airport-name="CHARLO" alt="41" city="CHARLO" country="CANADA" iata="YCL" icao="CYCL" lat_dec="47.99100000000001" lat_deg="47" lat_dir="N" lat_min="59" lat_sec="26" lon_dec="-66.331" lon_deg="66" lon_dir="W" lon_min="19" lon_sec="53" /><airport airport-name="KUGLUKTUK" alt="23" city="COPPERMINE" country="CANADA" iata="YCO" icao="CYCO" lat_dec="67.817" lat_deg="67" lat_dir="N" lat_min="49" lat_sec="0" lon_dec="-115.14399999999999" lon_deg="115" lon_dir="W" lon_min="8" lon_sec="38" /><airport airport-name="nan" alt="0" city="CHESTERFIELD INLET" country="CANADA" iata="YCS" icao="CYCS" lat_dec="0.0" lat_deg="0" lat_dir="U" lat_min="0" lat_sec="0" lon_dec="0.0" lon_deg="0" lon_dir="U" lon_min="0" lon_sec="0" /><airport airport-name="CORONATION" alt="791" city="CORONATION" country="CANADA" iata="YCT" icao="CYCT" lat_dec="52.075" lat_deg="52" lat_dir="N" lat_min="4" lat_sec="30" lon_dec="-111.445" lon_deg="111" lon_dir="W" lon_min="26" lon_sec="43" /><airport airport-name="nan" alt="0" city="MONTREAL" country="CANADA" iata="YCV" icao="CYCV" lat_dec="0.0" lat_deg="0" lat_dir="U" lat_min="0" lat_sec="0" lon_dec="0.0" lon_deg="0" lon_dir="U" lon_min="0" lon_sec="0" /><airport airport-name="CHILLIWACK" alt="10" city="CHILLIWACK" country="CANADA" iata="YCW" icao="CYCW" lat_dec="49.153" lat_deg="49" lat_dir="N" lat_min="9" lat_sec="10" lon_dec="-121.939" lon_deg="121" lon_dir="W" lon_min="56" lon_sec="20" /><airport airport-name="nan" alt="0" city="CAMP GAGETOWN" country="CANADA" iata="nan" icao="CYCX" lat_dec="0.0" lat_deg="0" lat_dir="U" lat_min="0" lat_sec="0" lon_dec="0.0" lon_deg="0" lon_dir="U" lon_min="0" lon_sec="0" /><airport airport-name="CLYDE RIVER" alt="27" city="CLYDE RIVER" country="CANADA" iata="YCY" icao="CYCY" lat_dec="70.486" lat_deg="70" lat_dir="N" lat_min="29" lat_sec="10" lon_dec="-68.517" lon_deg="68" lon_dir="W" lon_min="31" lon_sec="0" /><airport airport-name="FAIRMONT HOT SPRINGS" alt="811" city="CORAL HARBOUR" country="CANADA" iata="YZS" icao="CYCZ" lat_dec="50.332" lat_deg="50" lat_dir="N" lat_min="19" lat_sec="55" lon_dec="-115.874" lon_deg="115" lon_dir="W" lon_min="52" lon_sec="25" /><airport airport-name="DAWSON" alt="371" city="DAWSON" country="CANADA" iata="YDA" icao="CYDA" lat_dec="64.043" lat_deg="64" lat_dir="N" lat_min="2" lat_sec="35" lon_dec="-139.128" lon_deg="139" lon_dir="W" lon_min="7" lon_sec="40" /><airport airport-name="BURWASH" alt="807" city="BURWASH" country="CANADA" iata="YDB" icao="CYDB" lat_dec="61.371" lat_deg="61" lat_dir="N" lat_min="22" lat_sec="16" lon_dec="-139.041" lon_deg="139" lon_dir="W" lon_min="2" lon_sec="26" /><airport airport-name="PRINCETON" alt="701" city="PRINCETON" country="CANADA" iata="YDC" icao="CYDC" lat_dec="49.468" lat_deg="49" lat_dir="N" lat_min="28" lat_sec="3" lon_dec="-120.512" lon_deg="120" lon_dir="W" lon_min="30" lon_sec="43" /><airport airport-name="DEER LAKE" alt="22" city="DEER LAKE" country="CANADA" iata="YDF" icao="CYDF" lat_dec="49.211000000000006" lat_deg="49" lat_dir="N" lat_min="12" lat_sec="39" lon_dec="-57.391000000000005" lon_deg="57" lon_dir="W" lon_min="23" lon_sec="29" /><airport airport-name="DEASE LAKE" alt="793" city="DEASE LAKE" country="CANADA" iata="YDL" icao="CYDL" lat_dec="58.422" lat_deg="58" lat_dir="N" lat_min="25" lat_sec="20" lon_dec="-130.032" lon_deg="130" lon_dir="W" lon_min="1" lon_sec="56" /><airport airport-name="DAUPHIN BARKER" alt="305" city="DAUPHIN" country="CANADA" iata="YDN" icao="CYDN" lat_dec="51.101000000000006" lat_deg="51" lat_dir="N" lat_min="6" lat_sec="3" lon_dec="-100.052" lon_deg="100" lon_dir="W" lon_min="3" lon_sec="9" /><airport airport-name="DAWSON CREEK" alt="655" city="DAWSON CREEK" country="CANADA" iata="YDQ" icao="CYDQ" lat_dec="55.742" lat_deg="55" lat_dir="N" lat_min="44" lat_sec="30" lon_dec="-120.182" lon_deg="120" lon_dir="W" lon_min="10" lon_sec="55" /><airport airport-name="nan" alt="0" city="BROADVIEW" country="CANADA" iata="nan" icao="CYDR" lat_dec="0.0" lat_deg="0" lat_dir="U" lat_min="0" lat_sec="0" lon_dec="0.0" lon_deg="0" lon_dir="U" lon_min="0" lon_sec="0" /><airport airport-name="EDMONTON NAMAO" alt="0" city="EDMONTON" country="CANADA" iata="YED" icao="CYED" lat_dec="53.667" lat_deg="53" lat_dir="N" lat_min="40" lat_sec="0" lon_dec="-113.46700000000001" lon_deg="113" lon_dir="W" lon_min="28" lon_sec="0" /><airport airport-name="EDMONTON INTERNATIONAL" alt="724" city="EDMONTON" country="CANADA" iata="YEG" icao="CYEG" lat_dec="53.31" lat_deg="53" lat_dir="N" lat_min="18" lat_sec="35" lon_dec="-113.58" lon_deg="113" lon_dir="W" lon_min="34" lon_sec="47" /><airport airport-name="ARVIAT" alt="10" city="ESKIMO POINT" country="CANADA" iata="YEK" icao="CYEK" lat_dec="61.093999999999994" lat_deg="61" lat_dir="N" lat_min="5" lat_sec="39" lon_dec="-94.071" lon_deg="94" lon_dir="W" lon_min="4" lon_sec="15" /><airport airport-name="ESTEVAN" alt="581" city="ESTEVAN" country="CANADA" iata="YEN" icao="CYEN" lat_dec="49.21" lat_deg="49" lat_dir="N" lat_min="12" lat_sec="37" lon_dec="-102.96600000000001" lon_deg="102" lon_dir="W" lon_min="57" lon_sec="57" /><airport airport-name="nan" alt="0" city="ESTEVAN POINT" country="CANADA" iata="nan" icao="CYEP" lat_dec="0.0" lat_deg="0" lat_dir="U" lat_min="0" lat_sec="0" lon_dec="0.0" lon_deg="0" lon_dir="U" lon_min="0" lon_sec="0" /><airport airport-name="EDSON" alt="927" city="EDSON" country="CANADA" iata="YET" icao="CYET" lat_dec="53.57899999999999" lat_deg="53" lat_dir="N" lat_min="34" lat_sec="44" lon_dec="-116.465" lon_deg="116" lon_dir="W" lon_min="27" lon_sec="54" /><airport airport-name="EUREKA" alt="79" city="EUREKA" country="CANADA" iata="YEU" icao="CYEU" lat_dec="79.995" lat_deg="79" lat_dir="N" lat_min="59" lat_sec="41" lon_dec="-85.81299999999999" lon_deg="85" lon_dir="W" lon_min="48" lon_sec="48" /><airport airport-name="INUVIK MIKE ZUBKO" alt="69" city="INUVIK" country="CANADA" iata="YEV" icao="CYEV" lat_dec="68.304" lat_deg="68" lat_dir="N" lat_min="18" lat_sec="15" lon_dec="-133.483" lon_deg="133" lon_dir="W" lon_min="28" lon_sec="58" /><airport airport-name="IQALUIT" alt="34" city="IQALUIT" country="CANADA" iata="YFB" icao="CYFB" lat_dec="63.756" lat_deg="63" lat_dir="N" lat_min="45" lat_sec="23" lon_dec="-68.556" lon_deg="68" lon_dir="W" lon_min="33" lon_sec="21" /><airport airport-name="FREDERICTON" alt="21" city="FREDERICTON" country="CANADA" iata="YFC" icao="CYFC" lat_dec="45.869" lat_deg="45" lat_dir="N" lat_min="52" lat_sec="10" lon_dec="-66.532" lon_deg="66" lon_dir="W" lon_min="31" lon_sec="54" /><airport airport-name="FORESTVILLE" alt="9" city="FORESTVILLE" country="CANADA" iata="nan" icao="CYFE" lat_dec="48.746" lat_deg="48" lat_dir="N" lat_min="44" lat_sec="46" lon_dec="-69.097" lon_deg="69" lon_dir="W" lon_min="5" lon_sec="50" /><airport airport-name="nan" alt="0" city="FORT RELIANCE" country="CANADA" iata="nan" icao="CYFL" lat_dec="0.0" lat_deg="0" lat_dir="U" lat_min="0" lat_sec="0" lon_dec="0.0" lon_deg="0" lon_dir="U" lon_min="0" lon_sec="0" /><airport airport-name="FLIN FLON" alt="304" city="FLIN FLON" country="CANADA" iata="YFO" icao="CYFO" lat_dec="54.678000000000004" lat_deg="54" lat_dir="N" lat_min="40" lat_sec="41" lon_dec="-101.682" lon_deg="101" lon_dir="W" lon_min="40" lon_sec="54" /><airport airport-name="FORT RESOLUTION" alt="161" city="FORT RESOLUTION" country="CANADA" iata="YFR" icao="CYFR" lat_dec="61.181000000000004" lat_deg="61" lat_dir="N" lat_min="10" lat_sec="51" lon_dec="-113.69" lon_deg="113" lon_dir="W" lon_min="41" lon_sec="23" /><airport airport-name="FORT SIMPSON" alt="170" city="FORT SIMPSON" country="CANADA" iata="YFS" icao="CYFS" lat_dec="61.76" lat_deg="61" lat_dir="N" lat_min="45" lat_sec="37" lon_dec="-121.23700000000001" lon_deg="121" lon_dir="W" lon_min="14" lon_sec="12" /><airport airport-name="nan" alt="0" city="GAGNON" country="CANADA" iata="nan" icao="CYGA" lat_dec="0.0" lat_deg="0" lat_dir="U" lat_min="0" lat_sec="0" lon_dec="0.0" lon_deg="0" lon_dir="U" lon_min="0" lon_sec="0" /><airport airport-name="KINGSTON" alt="93" city="KINGSTON" country="CANADA" iata="YGK" icao="CYGK" lat_dec="44.225" lat_deg="44" lat_dir="N" lat_min="13" lat_sec="31" lon_dec="-76.597" lon_deg="76" lon_dir="W" lon_min="35" lon_sec="49" /><airport airport-name="LA GRANDE RIVIERE" alt="195" city="LA GRANDE RIVIERE" country="CANADA" iata="YGL" icao="CYGL" lat_dec="53.625" lat_deg="53" lat_dir="N" lat_min="37" lat_sec="31" lon_dec="-77.704" lon_deg="77" lon_dir="W" lon_min="42" lon_sec="15" /><airport airport-name="GASPE" alt="33" city="GASPE" country="CANADA" iata="YGP" icao="CYGP" lat_dec="48.775" lat_deg="48" lat_dir="N" lat_min="46" lat_sec="31" lon_dec="-64.479" lon_deg="64" lon_dir="W" lon_min="28" lon_sec="43" /><airport airport-name="GERALDTON GREENSTONE REGIONAL" alt="349" city="GERALDTON" country="CANADA" iata="YGQ" icao="CYGQ" lat_dec="49.778" lat_deg="49" lat_dir="N" lat_min="46" lat_sec="42" lon_dec="-86.939" lon_deg="86" lon_dir="W" lon_min="56" lon_sec="22" /><airport airport-name="ILES DE LA MADELEINE" alt="11" city="ILES DE LA MADELEINE" country="CANADA" iata="YGR" icao="CYGR" lat_dec="47.425" lat_deg="47" lat_dir="N" lat_min="25" lat_sec="29" lon_dec="-61.778" lon_deg="61" lon_dir="W" lon_min="46" lon_sec="41" /><airport airport-name="nan" alt="0" city="IGLOOLIK" country="CANADA" iata="YGT" icao="CYGT" lat_dec="0.0" lat_deg="0" lat_dir="U" lat_min="0" lat_sec="0" lon_dec="0.0" lon_deg="0" lon_dir="U" lon_min="0" lon_sec="0" /><airport airport-name="KUUJJUARAPIK" alt="20" city="KUUJJUARARAPIK" country="CANADA" iata="YGW" icao="CYGW" lat_dec="55.283" lat_deg="55" lat_dir="N" lat_min="17" lat_sec="0" lon_dec="-77.767" lon_deg="77" lon_dir="W" lon_min="46" lon_sec="0" /><airport airport-name="GILLAM" alt="144" city="GILLAM" country="CANADA" iata="YGX" icao="CYGX" lat_dec="56.35" lat_deg="56" lat_dir="N" lat_min="21" lat_sec="0" lon_dec="-94.7" lon_deg="94" lon_dir="W" lon_min="42" lon_sec="0" /><airport airport-name="nan" alt="0" city="DECEPTION" country="CANADA" iata="nan" icao="CYGY" lat_dec="0.0" lat_deg="0" lat_dir="U" lat_min="0" lat_sec="0" lon_dec="0.0" lon_deg="0" lon_dir="U" lon_min="0" lon_sec="0" /><airport airport-name="nan" alt="0" city="GRISE FIORD" country="CANADA" iata="YGZ" icao="CYGZ" lat_dec="0.0" lat_deg="0" lat_dir="U" lat_min="0" lat_sec="0" lon_dec="0.0" lon_deg="0" lon_dir="U" lon_min="0" lon_sec="0" /><airport airport-name="HUDSON BAY" alt="359" city="HUDSON BAY" country="CANADA" iata="YHB" icao="CYHB" lat_dec="52.817" lat_deg="52" lat_dir="N" lat_min="49" lat_sec="0" lon_dec="-102.311" lon_deg="102" lon_dir="W" lon_min="18" lon_sec="41" /><airport airport-name="DRYDEN RGNL" alt="413" city="DRYDEN" country="CANADA" iata="YHD" icao="CYHD" lat_dec="49.832" lat_deg="49" lat_dir="N" lat_min="49" lat_sec="54" lon_dec="-92.744" lon_deg="92" lon_dir="W" lon_min="44" lon_sec="39" /><airport airport-name="nan" alt="0" city="HOPE" country="CANADA" iata="nan" icao="CYHE" lat_dec="0.0" lat_deg="0" lat_dir="U" lat_min="0" lat_sec="0" lon_dec="0.0" lon_deg="0" lon_dir="U" lon_min="0" lon_sec="0" /><airport airport-name="HOLMAN" alt="36" city="HOLMAN ISLAND" country="CANADA" iata="YHI" icao="CYHI" lat_dec="70.763" lat_deg="70" lat_dir="N" lat_min="45" lat_sec="47" lon_dec="-117.806" lon_deg="117" lon_dir="W" lon_min="48" lon_sec="21" /><airport airport-name="GJOA HAVEN" alt="47" city="GJOA HAVEN" country="CANADA" iata="YHK" icao="CYHK" lat_dec="68.63600000000001" lat_deg="68" lat_dir="N" lat_min="38" lat_sec="8" lon_dec="-95.85" lon_deg="95" lon_dir="W" lon_min="50" lon_sec="59" /><airport airport-name="HAMILTON" alt="238" city="HAMILTON" country="CANADA" iata="YHM" icao="CYHM" lat_dec="43.173" lat_deg="43" lat_dir="N" lat_min="10" lat_sec="23" lon_dec="-79.935" lon_deg="79" lon_dir="W" lon_min="56" lon_sec="6" /><airport airport-name="nan" alt="0" city="HOPEDALE" country="CANADA" iata="YHO" icao="CYHO" lat_dec="0.0" lat_deg="0" lat_dir="U" lat_min="0" lat_sec="0" lon_dec="0.0" lon_deg="0" lon_dir="U" lon_min="0" lon_sec="0" /><airport airport-name="ST HUBERT" alt="28" city="MONTREAL" country="CANADA" iata="YHU" icao="CYHU" lat_dec="45.516999999999996" lat_deg="45" lat_dir="N" lat_min="31" lat_sec="3" lon_dec="-73.417" lon_deg="73" lon_dir="W" lon_min="25" lon_sec="1" /><airport airport-name="HAY RIVER" alt="166" city="HAY RIVER" country="CANADA" iata="YHY" icao="CYHY" lat_dec="60.84" lat_deg="60" lat_dir="N" lat_min="50" lat_sec="23" lon_dec="-115.78299999999999" lon_deg="115" lon_dir="W" lon_min="46" lon_sec="58" /><airport airport-name="HALIFAX INTERNATIONAL" alt="146" city="HALIFAX" country="CANADA" iata="YHZ" icao="CYHZ" lat_dec="44.881" lat_deg="44" lat_dir="N" lat_min="52" lat_sec="51" lon_dec="-63.50899999999999" lon_deg="63" lon_dir="W" lon_min="30" lon_sec="31" /><airport airport-name="ATIKOKAN MUNI" alt="430" city="ATIKOKAN" country="CANADA" iata="YIB" icao="CYIB" lat_dec="48.773999999999994" lat_deg="48" lat_dir="N" lat_min="46" lat_sec="26" lon_dec="-91.639" lon_deg="91" lon_dir="W" lon_min="38" lon_sec="19" /><airport airport-name="POND INLET" alt="56" city="POND INLET" country="CANADA" iata="YIO" icao="CYIO" lat_dec="72.683" lat_deg="72" lat_dir="N" lat_min="41" lat_sec="0" lon_dec="-77.967" lon_deg="77" lon_dir="W" lon_min="58" lon_sec="0" /><airport airport-name="nan" alt="0" city="ISLAND LAKE" country="CANADA" iata="YIV" icao="CYIV" lat_dec="0.0" lat_deg="0" lat_dir="U" lat_min="0" lat_sec="0" lon_dec="0.0" lon_deg="0" lon_dir="U" lon_min="0" lon_sec="0" /><airport airport-name="nan" alt="0" city="JASPER" country="CANADA" iata="nan" icao="CYJA" lat_dec="0.0" lat_deg="0" lat_dir="U" lat_min="0" lat_sec="0" lon_dec="0.0" lon_deg="0" lon_dir="U" lon_min="0" lon_sec="0" /><airport airport-name="ST JEAN" alt="42" city="ST. JEAN" country="CANADA" iata="YJN" icao="CYJN" lat_dec="45.294" lat_deg="45" lat_dir="N" lat_min="17" lat_sec="40" lon_dec="-73.281" lon_deg="73" lon_dir="W" lon_min="16" lon_sec="52" /><airport airport-name="STEPHENVILLE" alt="26" city="STEPHENVILLE" country="CANADA" iata="YJT" icao="CYJT" lat_dec="48.544" lat_deg="48" lat_dir="N" lat_min="32" lat_sec="39" lon_dec="-58.55" lon_deg="58" lon_dir="W" lon_min="33" lon_sec="0" /><airport airport-name="KAMLOOPS" alt="346" city="KAMLOOPS" country="CANADA" iata="YKA" icao="CYKA" lat_dec="50.702" lat_deg="50" lat_dir="N" lat_min="42" lat_sec="8" lon_dec="-120.44200000000001" lon_deg="120" lon_dir="W" lon_min="26" lon_sec="31" /><airport airport-name="WATERLOO RGNL" alt="317" city="WATERLOO" country="CANADA" iata="YKF" icao="CYKF" lat_dec="43.458999999999996" lat_deg="43" lat_dir="N" lat_min="27" lat_sec="32" lon_dec="-80.384" lon_deg="80" lon_dir="W" lon_min="23" lon_sec="4" /><airport airport-name="SCHEFFERVILLE" alt="521" city="SCHEFFERVILLE" country="CANADA" iata="YKL" icao="CYKL" lat_dec="54.805" lat_deg="54" lat_dir="N" lat_min="48" lat_sec="18" lon_dec="-66.805" lon_deg="66" lon_dir="W" lon_min="48" lon_sec="19" /><airport airport-name="KINDERSLEY" alt="695" city="KINDERSLEY" country="CANADA" iata="YKY" icao="CYKY" lat_dec="51.516999999999996" lat_deg="51" lat_dir="N" lat_min="31" lat_sec="3" lon_dec="-109.181" lon_deg="109" lon_dir="W" lon_min="10" lon_sec="51" /><airport airport-name="BUTTONVILLE MUNI" alt="199" city="TORONTO" country="CANADA" iata="YKZ" icao="CYKZ" lat_dec="43.861999999999995" lat_deg="43" lat_dir="N" lat_min="51" lat_sec="44" lon_dec="-79.37" lon_deg="79" lon_dir="W" lon_min="22" lon_sec="12" /><airport airport-name="nan" alt="0" city="LANGARA" country="CANADA" iata="nan" icao="CYLA" lat_dec="0.0" lat_deg="0" lat_dir="U" lat_min="0" lat_sec="0" lon_dec="0.0" lon_deg="0" lon_dir="U" lon_min="0" lon_sec="0" /><airport airport-name="nan" alt="0" city="LAKE HARBOUR" country="CANADA" iata="YLC" icao="CYLC" lat_dec="0.0" lat_deg="0" lat_dir="U" lat_min="0" lat_sec="0" lon_dec="0.0" lon_deg="0" lon_dir="U" lon_min="0" lon_sec="0" /><airport airport-name="CHAPLEAU" alt="447" city="CHAPLEAU" country="CANADA" iata="YLD" icao="CYLD" lat_dec="47.82" lat_deg="47" lat_dir="N" lat_min="49" lat_sec="12" lon_dec="-83.346" lon_deg="83" lon_dir="W" lon_min="20" lon_sec="47" /><airport airport-name="MEADOW LAKE" alt="481" city="MEADOW LAKE" country="CANADA" iata="YLJ" icao="CYLJ" lat_dec="54.125" lat_deg="54" lat_dir="N" lat_min="7" lat_sec="31" lon_dec="-108.523" lon_deg="108" lon_dir="W" lon_min="31" lon_sec="22" /><airport airport-name="LLOYDMINSTER" alt="669" city="LLOYDMINSTER" country="CANADA" iata="YLL" icao="CYLL" lat_dec="53.309" lat_deg="53" lat_dir="N" lat_min="18" lat_sec="33" lon_dec="-110.072" lon_deg="110" lon_dir="W" lon_min="4" lon_sec="21" /><airport airport-name="nan" alt="0" city="SHILO" country="CANADA" iata="nan" icao="CYLO" lat_dec="0.0" lat_deg="0" lat_dir="U" lat_min="0" lat_sec="0" lon_dec="0.0" lon_deg="0" lon_dir="U" lon_min="0" lon_sec="0" /><airport airport-name="ALERT" alt="31" city="ALERT" country="CANADA" iata="YLT" icao="CYLT" lat_dec="82.51799999999999" lat_deg="82" lat_dir="N" lat_min="31" lat_sec="4" lon_dec="-62.281000000000006" lon_deg="62" lon_dir="W" lon_min="16" lon_sec="50" /><airport airport-name="KELOWNA" alt="430" city="KELOWNA" country="CANADA" iata="YLW" icao="CYLW" lat_dec="49.956" lat_deg="49" lat_dir="N" lat_min="57" lat_sec="22" lon_dec="-119.37799999999999" lon_deg="119" lon_dir="W" lon_min="22" lon_sec="40" /><airport airport-name="nan" alt="0" city="LYTTON" country="CANADA" iata="nan" icao="CYLY" lat_dec="0.0" lat_deg="0" lat_dir="U" lat_min="0" lat_sec="0" lon_dec="0.0" lon_deg="0" lon_dir="U" lon_min="0" lon_sec="0" /><airport airport-name="MAYO" alt="504" city="MAYO" country="CANADA" iata="YMA" icao="CYMA" lat_dec="63.617" lat_deg="63" lat_dir="N" lat_min="37" lat_sec="0" lon_dec="-135.86700000000002" lon_deg="135" lon_dir="W" lon_min="52" lon_sec="0" /><airport airport-name="nan" alt="0" city="MOULD BAY" country="CANADA" iata="nan" icao="CYMD" lat_dec="0.0" lat_deg="0" lat_dir="U" lat_min="0" lat_sec="0" lon_dec="0.0" lon_deg="0" lon_dir="U" lon_min="0" lon_sec="0" /><airport airport-name="MOOSE JAW" alt="577" city="MOOSE JAW" country="CANADA" iata="YMJ" icao="CYMJ" lat_dec="50.33" lat_deg="50" lat_dir="N" lat_min="19" lat_sec="49" lon_dec="-105.559" lon_deg="105" lon_dir="W" lon_min="33" lon_sec="33" /><airport airport-name="FORT MCMURRAY" alt="370" city="FORT MCMURRAY" country="CANADA" iata="YMM" icao="CYMM" lat_dec="56.653" lat_deg="56" lat_dir="N" lat_min="39" lat_sec="12" lon_dec="-111.22200000000001" lon_deg="111" lon_dir="W" lon_min="13" lon_sec="19" /><airport airport-name="MOOSONEE" alt="10" city="MOOSONEE" country="CANADA" iata="YMO" icao="CYMO" lat_dec="51.291000000000004" lat_deg="51" lat_dir="N" lat_min="17" lat_sec="28" lon_dec="-80.608" lon_deg="80" lon_dir="W" lon_min="36" lon_sec="28" /><airport airport-name="nan" alt="0" city="MERRY ISLAND" country="CANADA" iata="nan" icao="CYMR" lat_dec="0.0" lat_deg="0" lat_dir="U" lat_min="0" lat_sec="0" lon_dec="0.0" lon_deg="0" lon_dir="U" lon_min="0" lon_sec="0" /><airport airport-name="MANIWAKI" alt="201" city="MANIWAKI" country="CANADA" iata="YMW" icao="CYMW" lat_dec="46.273999999999994" lat_deg="46" lat_dir="N" lat_min="16" lat_sec="28" lon_dec="-75.99" lon_deg="75" lon_dir="W" lon_min="59" lon_sec="24" /><airport airport-name="MONTREAL INTERNATIONAL MIRABEL" alt="83" city="MONTREAL" country="CANADA" iata="YMX" icao="CYMX" lat_dec="45.68" lat_deg="45" lat_dir="N" lat_min="40" lat_sec="47" lon_dec="-74.039" lon_deg="74" lon_dir="W" lon_min="2" lon_sec="19" /><airport airport-name="NATASHQUAN" alt="11" city="NATASHQUAN" country="CANADA" iata="YNA" icao="CYNA" lat_dec="50.19" lat_deg="50" lat_dir="N" lat_min="11" lat_sec="23" lon_dec="-61.788999999999994" lon_deg="61" lon_dir="W" lon_min="47" lon_sec="21" /><airport airport-name="GATINEAU" alt="65" city="GATINEAU" country="CANADA" iata="YND" icao="CYND" lat_dec="45.521" lat_deg="45" lat_dir="N" lat_min="31" lat_sec="17" lon_dec="-75.564" lon_deg="75" lon_dir="W" lon_min="33" lon_sec="51" /><airport airport-name="nan" alt="0" city="NITCHEQUON" country="CANADA" iata="nan" icao="CYNI" lat_dec="0.0" lat_deg="0" lat_dir="U" lat_min="0" lat_sec="0" lon_dec="0.0" lon_deg="0" lon_dir="U" lon_min="0" lon_sec="0" /><airport airport-name="MATAGAMI" alt="280" city="MATAGAMI" country="CANADA" iata="YNM" icao="CYNM" lat_dec="49.762" lat_deg="49" lat_dir="N" lat_min="45" lat_sec="42" lon_dec="-77.803" lon_deg="77" lon_dir="W" lon_min="48" lon_sec="10" /><airport airport-name="nan" alt="0" city="ENDERBY" country="CANADA" iata="nan" icao="CYNY" lat_dec="0.0" lat_deg="0" lat_dir="U" lat_min="0" lat_sec="0" lon_dec="0.0" lon_deg="0" lon_dir="U" lon_min="0" lon_sec="0" /><airport airport-name="nan" alt="0" city="WYNYARD" country="CANADA" iata="nan" icao="CYO" lat_dec="0.0" lat_deg="0" lat_dir="U" lat_min="0" lat_sec="0" lon_dec="0.0" lon_deg="0" lon_dir="U" lon_min="0" lon_sec="0" /><airport airport-name="OLD CROW" alt="252" city="OLD CROW" country="CANADA" iata="YOC" icao="CYOC" lat_dec="67.571" lat_deg="67" lat_dir="N" lat_min="34" lat_sec="14" lon_dec="-139.839" lon_deg="139" lon_dir="W" lon_min="50" lon_sec="21" /><airport airport-name="COLD LAKE" alt="542" city="COLD LAKE" country="CANADA" iata="YOD" icao="CYOD" lat_dec="54.405" lat_deg="54" lat_dir="N" lat_min="24" lat_sec="18" lon_dec="-110.279" lon_deg="110" lon_dir="W" lon_min="16" lon_sec="46" /><airport airport-name="HIGH LEVEL" alt="339" city="HIGH LEVEL" country="CANADA" iata="YOJ" icao="CYOJ" lat_dec="58.621" lat_deg="58" lat_dir="N" lat_min="37" lat_sec="17" lon_dec="-117.165" lon_deg="117" lon_dir="W" lon_min="9" lon_sec="53" /><airport airport-name="OTTAWA MACDONALD CARTIER INTERNATIONAL" alt="114" city="OTTAWA" country="CANADA" iata="YOW" icao="CYOW" lat_dec="45.323" lat_deg="45" lat_dir="N" lat_min="19" lat_sec="21" lon_dec="-75.669" lon_deg="75" lon_dir="W" lon_min="40" lon_sec="9" /><airport airport-name="PRINCE ALBERT GLASS FIELD" alt="429" city="PRINCE ALBERT" country="CANADA" iata="YPA" icao="CYPA" lat_dec="53.214" lat_deg="53" lat_dir="N" lat_min="12" lat_sec="51" lon_dec="-105.67299999999999" lon_deg="105" lon_dir="W" lon_min="40" lon_sec="22" /><airport airport-name="PEACE RIVER" alt="571" city="PEACE RIVER" country="CANADA" iata="YPE" icao="CYPE" lat_dec="56.227" lat_deg="56" lat_dir="N" lat_min="13" lat_sec="37" lon_dec="-117.447" lon_deg="117" lon_dir="W" lon_min="26" lon_sec="50" /><airport airport-name="nan" alt="0" city="ESQUIMALT" country="CANADA" iata="nan" icao="CYPF" lat_dec="0.0" lat_deg="0" lat_dir="U" lat_min="0" lat_sec="0" lon_dec="0.0" lon_deg="0" lon_dir="U" lon_min="0" lon_sec="0" /><airport airport-name="SOUTHPORT" alt="270" city="PORTAGE-LA-PRAIRIE" country="CANADA" iata="YPG" icao="CYPG" lat_dec="49.903" lat_deg="49" lat_dir="N" lat_min="54" lat_sec="10" lon_dec="-98.275" lon_deg="98" lon_dir="W" lon_min="16" lon_sec="29" /><airport airport-name="nan" alt="0" city="INUKJUAK" country="CANADA" iata="YPH" icao="CYPH" lat_dec="0.0" lat_deg="0" lat_dir="U" lat_min="0" lat_sec="0" lon_dec="0.0" lon_deg="0" lon_dir="U" lon_min="0" lon_sec="0" /><airport airport-name="PITT MEADOWS" alt="4" city="PITT MEADOWS" country="CANADA" iata="nan" icao="CYPK" lat_dec="49.216" lat_deg="49" lat_dir="N" lat_min="12" lat_sec="58" lon_dec="-122.71" lon_deg="122" lon_dir="W" lon_min="42" lon_sec="36" /><airport airport-name="PICKLE LAKE" alt="387" city="PICKLE LAKE" country="CANADA" iata="YPL" icao="CYPL" lat_dec="51.446000000000005" lat_deg="51" lat_dir="N" lat_min="26" lat_sec="47" lon_dec="-90.214" lon_deg="90" lon_dir="W" lon_min="12" lon_sec="51" /><airport airport-name="PORT MENIER" alt="51" city="PORT MENIER" country="CANADA" iata="YPN" icao="CYPN" lat_dec="49.836000000000006" lat_deg="49" lat_dir="N" lat_min="50" lat_sec="11" lon_dec="-64.289" lon_deg="64" lon_dir="W" lon_min="17" lon_sec="19" /><airport airport-name="PETERBOROUGH" alt="192" city="PETERBOROUGH" country="CANADA" iata="YPQ" icao="CYPQ" lat_dec="44.23" lat_deg="44" lat_dir="N" lat_min="13" lat_sec="48" lon_dec="-78.363" lon_deg="78" lon_dir="W" lon_min="21" lon_sec="48" /><airport airport-name="PRINCE RUPERT" alt="36" city="PRINCE PUPERT" country="CANADA" iata="YPR" icao="CYPR" lat_dec="54.286" lat_deg="54" lat_dir="N" lat_min="17" lat_sec="10" lon_dec="-130.445" lon_deg="130" lon_dir="W" lon_min="26" lon_sec="41" /><airport airport-name="FORT CHIPEWYAN" alt="232" city="FORT CHIPEWYAN" country="CANADA" iata="YPY" icao="CYPY" lat_dec="58.766999999999996" lat_deg="58" lat_dir="N" lat_min="46" lat_sec="2" lon_dec="-111.117" lon_deg="111" lon_dir="W" lon_min="7" lon_sec="2" /><airport airport-name="MUSKOKA" alt="282" city="MUSKOKA" country="CANADA" iata="YQA" icao="CYQA" lat_dec="44.975" lat_deg="44" lat_dir="N" lat_min="58" lat_sec="29" lon_dec="-79.303" lon_deg="79" lon_dir="W" lon_min="18" lon_sec="12" /><airport airport-name="QUEBEC JEAN LESAGE INTERNATIONAL" alt="75" city="QUEBEC" country="CANADA" iata="YQB" icao="CYQB" lat_dec="46.788000000000004" lat_deg="46" lat_dir="N" lat_min="47" lat_sec="18" lon_dec="-71.398" lon_deg="71" lon_dir="W" lon_min="23" lon_sec="51" /><airport airport-name="RED DEER REGIONAL" alt="905" city="RED DEER INDUSTRIAL" country="CANADA" iata="YQF" icao="CYQF" lat_dec="52.178999999999995" lat_deg="52" lat_dir="N" lat_min="10" lat_sec="43" lon_dec="-113.89299999999999" lon_deg="113" lon_dir="W" lon_min="53" lon_sec="35" /><airport airport-name="WINDSOR" alt="190" city="WINDSOR" country="CANADA" iata="YQG" icao="CYQG" lat_dec="42.276" lat_deg="42" lat_dir="N" lat_min="16" lat_sec="32" lon_dec="-82.956" lon_deg="82" lon_dir="W" lon_min="57" lon_sec="20" /><airport airport-name="WATSON LAKE" alt="688" city="WATSON LAKE" country="CANADA" iata="YQH" icao="CYQH" lat_dec="60.118" lat_deg="60" lat_dir="N" lat_min="7" lat_sec="4" lon_dec="-128.822" lon_deg="128" lon_dir="W" lon_min="49" lon_sec="19" /><airport airport-name="KENORA" alt="406" city="KENORA" country="CANADA" iata="YQK" icao="CYQK" lat_dec="49.788000000000004" lat_deg="49" lat_dir="N" lat_min="47" lat_sec="18" lon_dec="-94.363" lon_deg="94" lon_dir="W" lon_min="21" lon_sec="47" /><airport airport-name="LETHBRIDGE" alt="929" city="LETHBRIDGE" country="CANADA" iata="YQL" icao="CYQL" lat_dec="49.63" lat_deg="49" lat_dir="N" lat_min="37" lat_sec="49" lon_dec="-112.8" lon_deg="112" lon_dir="W" lon_min="47" lon_sec="59" /><airport airport-name="GREATER MONCTON INTERNATIONAL" alt="71" city="MONCTON" country="CANADA" iata="YQM" icao="CYQM" lat_dec="46.111999999999995" lat_deg="46" lat_dir="N" lat_min="6" lat_sec="44" lon_dec="-64.679" lon_deg="64" lon_dir="W" lon_min="40" lon_sec="43" /><airport airport-name="NAKINA" alt="323" city="NAKINA" country="CANADA" iata="nan" icao="CYQN" lat_dec="50.183" lat_deg="50" lat_dir="N" lat_min="10" lat_sec="58" lon_dec="-86.696" lon_deg="86" lon_dir="W" lon_min="41" lon_sec="47" /><airport airport-name="COMOX" alt="26" city="COMOX" country="CANADA" iata="YQQ" icao="CYQQ" lat_dec="49.711000000000006" lat_deg="49" lat_dir="N" lat_min="42" lat_sec="39" lon_dec="-124.887" lon_deg="124" lon_dir="W" lon_min="53" lon_sec="12" /><airport airport-name="REGINA INTERNATIONAL" alt="578" city="REGINA" country="CANADA" iata="YQR" icao="CYQR" lat_dec="50.431999999999995" lat_deg="50" lat_dir="N" lat_min="25" lat_sec="55" lon_dec="-104.666" lon_deg="104" lon_dir="W" lon_min="39" lon_sec="57" /><airport airport-name="THUNDER BAY" alt="200" city="THUNDER BAY" country="CANADA" iata="YQT" icao="CYQT" lat_dec="48.372" lat_deg="48" lat_dir="N" lat_min="22" lat_sec="19" lon_dec="-89.324" lon_deg="89" lon_dir="W" lon_min="19" lon_sec="26" /><airport airport-name="GRANDE PRAIRIE" alt="670" city="GRANDE PRAIRIE" country="CANADA" iata="YQU" icao="CYQU" lat_dec="55.18" lat_deg="55" lat_dir="N" lat_min="10" lat_sec="47" lon_dec="-118.885" lon_deg="118" lon_dir="W" lon_min="53" lon_sec="6" /><airport airport-name="YORKTON MUNI" alt="499" city="YORKTON" country="CANADA" iata="YQV" icao="CYQV" lat_dec="51.265" lat_deg="51" lat_dir="N" lat_min="15" lat_sec="53" lon_dec="-102.462" lon_deg="102" lon_dir="W" lon_min="27" lon_sec="42" /><airport airport-name="NORTH BATTLEFORD" alt="549" city="NORTH BATTLEFORD" country="CANADA" iata="YQW" icao="CYQW" lat_dec="52.769" lat_deg="52" lat_dir="N" lat_min="46" lat_sec="9" lon_dec="-108.244" lon_deg="108" lon_dir="W" lon_min="14" lon_sec="37" /><airport airport-name="GANDER INTERNATIONAL" alt="152" city="GANDER" country="CANADA" iata="YQX" icao="CYQX" lat_dec="48.937" lat_deg="48" lat_dir="N" lat_min="56" lat_sec="13" lon_dec="-54.568000000000005" lon_deg="54" lon_dir="W" lon_min="34" lon_sec="5" /><airport airport-name="SYDNEY" alt="62" city="SYDNEY" country="CANADA" iata="YQY" icao="CYQY" lat_dec="46.161" lat_deg="46" lat_dir="N" lat_min="9" lat_sec="41" lon_dec="-60.048" lon_deg="60" lon_dir="W" lon_min="2" lon_sec="52" /><airport airport-name="QUESNEL" alt="546" city="QUESNEL" country="CANADA" iata="YQZ" icao="CYQZ" lat_dec="53.026" lat_deg="53" lat_dir="N" lat_min="1" lat_sec="34" lon_dec="-122.51" lon_deg="122" lon_dir="W" lon_min="30" lon_sec="36" /><airport airport-name="RESOLUTE BAY" alt="66" city="RESOLUTE" country="CANADA" iata="YRB" icao="CYRB" lat_dec="74.717" lat_deg="74" lat_dir="N" lat_min="43" lat_sec="1" lon_dec="-94.969" lon_deg="94" lon_dir="W" lon_min="58" lon_sec="10" /><airport airport-name="RIVIERE DU LOUP" alt="131" city="RIVIERE DU LOUP" country="CANADA" iata="YRI" icao="CYRI" lat_dec="47.763999999999996" lat_deg="47" lat_dir="N" lat_min="45" lat_sec="52" lon_dec="-69.585" lon_deg="69" lon_dir="W" lon_min="35" lon_sec="5" /><airport airport-name="ROBERVAL" alt="179" city="ROBERVAL" country="CANADA" iata="YRJ" icao="CYRJ" lat_dec="48.52" lat_deg="48" lat_dir="N" lat_min="31" lat_sec="12" lon_dec="-72.266" lon_deg="72" lon_dir="W" lon_min="15" lon_sec="56" /><airport airport-name="ROCKY MOUNTAIN HOUSE" alt="989" city="ROCKY MOUNTAIN HOUSE" country="CANADA" iata="YRM" icao="CYRM" lat_dec="52.43" lat_deg="52" lat_dir="N" lat_min="25" lat_sec="47" lon_dec="-114.904" lon_deg="114" lon_dir="W" lon_min="54" lon_sec="15" /><airport airport-name="RANKIN INLET" alt="29" city="RANKIN INLET" country="CANADA" iata="YRT" icao="CYRT" lat_dec="62.81100000000001" lat_deg="62" lat_dir="N" lat_min="48" lat_sec="41" lon_dec="-92.116" lon_deg="92" lon_dir="W" lon_min="6" lon_sec="57" /><airport airport-name="nan" alt="0" city="TROIS RIVIERE" country="CANADA" iata="nan" icao="CYRW" lat_dec="0.0" lat_deg="0" lat_dir="U" lat_min="0" lat_sec="0" lon_dec="0.0" lon_deg="0" lon_dir="U" lon_min="0" lon_sec="0" /><airport airport-name="nan" alt="0" city="SABLE ISLAND" country="CANADA" iata="nan" icao="CYSA" lat_dec="0.0" lat_deg="0" lat_dir="U" lat_min="0" lat_sec="0" lon_dec="0.0" lon_deg="0" lon_dir="U" lon_min="0" lon_sec="0" /><airport airport-name="SUDBURY" alt="348" city="SUDBURY" country="CANADA" iata="YSB" icao="CYSB" lat_dec="46.625" lat_deg="46" lat_dir="N" lat_min="37" lat_sec="30" lon_dec="-80.79899999999999" lon_deg="80" lon_dir="W" lon_min="47" lon_sec="56" /><airport airport-name="SHERBROOKE" alt="242" city="SHERBROOKE" country="CANADA" iata="YSC" icao="CYSC" lat_dec="45.438" lat_deg="45" lat_dir="N" lat_min="26" lat_sec="17" lon_dec="-71.691" lon_deg="71" lon_dir="W" lon_min="41" lon_sec="26" /><airport airport-name="nan" alt="0" city="SUFFIELD" country="CANADA" iata="nan" icao="CYSD" lat_dec="0.0" lat_deg="0" lat_dir="U" lat_min="0" lat_sec="0" lon_dec="0.0" lon_deg="0" lon_dir="U" lon_min="0" lon_sec="0" /><airport airport-name="nan" alt="0" city="STONY RAPIDS" country="CANADA" iata="YSF" icao="CYSF" lat_dec="0.0" lat_deg="0" lat_dir="U" lat_min="0" lat_sec="0" lon_dec="0.0" lon_deg="0" lon_dir="U" lon_min="0" lon_sec="0" /><airport airport-name="SAINT JOHN" alt="109" city="ST. JOHN" country="CANADA" iata="YSJ" icao="CYSJ" lat_dec="45.316" lat_deg="45" lat_dir="N" lat_min="18" lat_sec="58" lon_dec="-65.89" lon_deg="65" lon_dir="W" lon_min="53" lon_sec="25" /><airport airport-name="nan" alt="0" city="SANIKILUAQ" country="CANADA" iata="YSK" icao="CYSK" lat_dec="0.0" lat_deg="0" lat_dir="U" lat_min="0" lat_sec="0" lon_dec="0.0" lon_deg="0" lon_dir="U" lon_min="0" lon_sec="0" /><airport airport-name="FORT SMITH" alt="206" city="FORT SMITH" country="CANADA" iata="YSM" icao="CYSM" lat_dec="60.022" lat_deg="60" lat_dir="N" lat_min="1" lat_sec="20" lon_dec="-111.96" lon_deg="111" lon_dir="W" lon_min="57" lon_sec="37" /><airport airport-name="NANISIVIK" alt="642" city="NANISIVIK" country="CANADA" iata="YSR" icao="CYSR" lat_dec="72.982" lat_deg="72" lat_dir="N" lat_min="58" lat_sec="56" lon_dec="-84.61399999999999" lon_deg="84" lon_dir="W" lon_min="36" lon_sec="49" /><airport airport-name="nan" alt="0" city="SLATE ISLAND" country="CANADA" iata="nan" icao="CYSS" lat_dec="0.0" lat_deg="0" lat_dir="U" lat_min="0" lat_sec="0" lon_dec="0.0" lon_deg="0" lon_dir="U" lon_min="0" lon_sec="0" /><airport airport-name="SUMMERSIDE" alt="18" city="SUMMERSIDE" country="CANADA" iata="YSU" icao="CYSU" lat_dec="46.443000000000005" lat_deg="46" lat_dir="N" lat_min="26" lat_sec="34" lon_dec="-63.831" lon_deg="63" lon_dir="W" lon_min="49" lon_sec="52" /><airport airport-name="SACHS HARBOUR" alt="86" city="SACHS HARBOUR" country="CANADA" iata="YSY" icao="CYSY" lat_dec="71.994" lat_deg="71" lat_dir="N" lat_min="59" lat_sec="38" lon_dec="-125.243" lon_deg="125" lon_dir="W" lon_min="14" lon_sec="33" /><airport airport-name="nan" alt="0" city="ETHELDA BAY" country="CANADA" iata="nan" icao="CYTC" lat_dec="0.0" lat_deg="0" lat_dir="U" lat_min="0" lat_sec="0" lon_dec="0.0" lon_deg="0" lon_dir="U" lon_min="0" lon_sec="0" /><airport airport-name="CAPE DORSET" alt="50" city="CAPE DORSET" country="CANADA" iata="YTE" icao="CYTE" lat_dec="64.23" lat_deg="64" lat_dir="N" lat_min="13" lat_sec="48" lon_dec="-76.527" lon_deg="76" lon_dir="W" lon_min="31" lon_sec="36" /><airport airport-name="THOMPSON" alt="223" city="THOMPSON" country="CANADA" iata="YTH" icao="CYTH" lat_dec="55.801" lat_deg="55" lat_dir="N" lat_min="48" lat_sec="4" lon_dec="-97.86399999999999" lon_deg="97" lon_dir="W" lon_min="51" lon_sec="51" /><airport airport-name="nan" alt="0" city="BIG TROUT LAKE" country="CANADA" iata="YTL" icao="CYTL" lat_dec="0.0" lat_deg="0" lat_dir="U" lat_min="0" lat_sec="0" lon_dec="0.0" lon_deg="0" lon_dir="U" lon_min="0" lon_sec="0" /><airport airport-name="TRENTON" alt="87" city="TRENTON" country="CANADA" iata="YTR" icao="CYTR" lat_dec="44.119" lat_deg="44" lat_dir="N" lat_min="7" lat_sec="8" lon_dec="-77.528" lon_deg="77" lon_dir="W" lon_min="31" lon_sec="41" /><airport airport-name="TIMMINS" alt="295" city="TIMMINS" country="CANADA" iata="YTS" icao="CYTS" lat_dec="48.57" lat_deg="48" lat_dir="N" lat_min="34" lat_sec="11" lon_dec="-81.377" lon_deg="81" lon_dir="W" lon_min="22" lon_sec="36" /><airport airport-name="CITY CENTRE" alt="77" city="TORONTO" country="CANADA" iata="YTZ" icao="CYTZ" lat_dec="43.626999999999995" lat_deg="43" lat_dir="N" lat_min="37" lat_sec="39" lon_dec="-79.396" lon_deg="79" lon_dir="W" lon_min="23" lon_sec="46" /><airport airport-name="nan" alt="0" city="SHINGLE POINT" country="CANADA" iata="nan" icao="CYUA" lat_dec="0.0" lat_deg="0" lat_dir="U" lat_min="0" lat_sec="0" lon_dec="0.0" lon_deg="0" lon_dir="U" lon_min="0" lon_sec="0" /><airport airport-name="TUKTOYAKTUK" alt="5" city="TUKTOYAKTUK" country="CANADA" iata="YUB" icao="CYUB" lat_dec="69.433" lat_deg="69" lat_dir="N" lat_min="26" lat_sec="0" lon_dec="-133.026" lon_deg="133" lon_dir="W" lon_min="1" lon_sec="35" /><airport airport-name="nan" alt="0" city="NICHOLSON PENINSULAR" country="CANADA" iata="nan" icao="CYUC" lat_dec="0.0" lat_deg="0" lat_dir="U" lat_min="0" lat_sec="0" lon_dec="0.0" lon_deg="0" lon_dir="U" lon_min="0" lon_sec="0" /><airport airport-name="nan" alt="0" city="PELLY BAY" country="CANADA" iata="YUF" icao="CYUF" lat_dec="0.0" lat_deg="0" lat_dir="U" lat_min="0" lat_sec="0" lon_dec="0.0" lon_deg="0" lon_dir="U" lon_min="0" lon_sec="0" /><airport airport-name="nan" alt="0" city="CLINTON POINT" country="CANADA" iata="nan" icao="CYUH" lat_dec="0.0" lat_deg="0" lat_dir="U" lat_min="0" lat_sec="0" lon_dec="0.0" lon_deg="0" lon_dir="U" lon_min="0" lon_sec="0" /><airport airport-name="nan" alt="0" city="CAPE YOUNG" country="CANADA" iata="nan" icao="CYUI" lat_dec="0.0" lat_deg="0" lat_dir="U" lat_min="0" lat_sec="0" lon_dec="0.0" lon_deg="0" lon_dir="U" lon_min="0" lon_sec="0" /><airport airport-name="nan" alt="0" city="LADY FRANKLIN POINT" country="CANADA" iata="nan" icao="CYUJ" lat_dec="0.0" lat_deg="0" lat_dir="U" lat_min="0" lat_sec="0" lon_dec="0.0" lon_deg="0" lon_dir="U" lon_min="0" lon_sec="0" /><airport airport-name="nan" alt="0" city="BYRON BAY" country="CANADA" iata="nan" icao="CYUK" lat_dec="0.0" lat_deg="0" lat_dir="U" lat_min="0" lat_sec="0" lon_dec="0.0" lon_deg="0" lon_dir="U" lon_min="0" lon_sec="0" /><airport airport-name="MONTREAL INTERNATIONAL DORVAL" alt="36" city="MONTREAL" country="CANADA" iata="YUL" icao="CYUL" lat_dec="45.468" lat_deg="45" lat_dir="N" lat_min="28" lat_sec="5" lon_dec="-73.741" lon_deg="73" lon_dir="W" lon_min="44" lon_sec="29" /><airport airport-name="nan" alt="0" city="JENNY LIND ISLAND" country="CANADA" iata="nan" icao="CYUQ" lat_dec="0.0" lat_deg="0" lat_dir="U" lat_min="0" lat_sec="0" lon_dec="0.0" lon_deg="0" lon_dir="U" lon_min="0" lon_sec="0" /><airport airport-name="nan" alt="0" city="GLADMAN POINT" country="CANADA" iata="nan" icao="CYUR" lat_dec="0.0" lat_deg="0" lat_dir="U" lat_min="0" lat_sec="0" lon_dec="0.0" lon_deg="0" lon_dir="U" lon_min="0" lon_sec="0" /><airport airport-name="nan" alt="0" city="SHEPHERD BAY" country="CANADA" iata="nan" icao="CYUS" lat_dec="0.0" lat_deg="0" lat_dir="U" lat_min="0" lat_sec="0" lon_dec="0.0" lon_deg="0" lon_dir="U" lon_min="0" lon_sec="0" /><airport airport-name="REPULSE BAY" alt="25" city="REPULSE BAY" country="CANADA" iata="YUT" icao="CYUT" lat_dec="66.521" lat_deg="66" lat_dir="N" lat_min="31" lat_sec="17" lon_dec="-86.225" lon_deg="86" lon_dir="W" lon_min="13" lon_sec="29" /><airport airport-name="HALL BEACH" alt="9" city="HALL BEACH" country="CANADA" iata="YUX" icao="CYUX" lat_dec="68.77600000000001" lat_deg="68" lat_dir="N" lat_min="46" lat_sec="34" lon_dec="-81.244" lon_deg="81" lon_dir="W" lon_min="14" lon_sec="37" /><airport airport-name="ROUYN NORANDA" alt="302" city="ROUYN" country="CANADA" iata="YUY" icao="CYUY" lat_dec="48.206" lat_deg="48" lat_dir="N" lat_min="12" lat_sec="22" lon_dec="-78.836" lon_deg="78" lon_dir="W" lon_min="50" lon_sec="8" /><airport airport-name="LA RONGE" alt="379" city="LA RONGE" country="CANADA" iata="YVC" icao="CYVC" lat_dec="55.151" lat_deg="55" lat_dir="N" lat_min="9" lat_sec="5" lon_dec="-105.262" lon_deg="105" lon_dir="W" lon_min="15" lon_sec="43" /><airport airport-name="VERMILION" alt="618" city="VERMILLION" country="CANADA" iata="YVG" icao="CYVG" lat_dec="53.356" lat_deg="53" lat_dir="N" lat_min="21" lat_sec="21" lon_dec="-110.824" lon_deg="110" lon_dir="W" lon_min="49" lon_sec="26" /><airport airport-name="QIKIQTARJUAQ" alt="7" city="BROUGHTON ISLAND" country="CANADA" iata="YVM" icao="CYVM" lat_dec="67.546" lat_deg="67" lat_dir="N" lat_min="32" lat_sec="45" lon_dec="-64.031" lon_deg="64" lon_dir="W" lon_min="1" lon_sec="53" /><airport airport-name="nan" alt="0" city="CAPE DYER" country="CANADA" iata="nan" icao="CYVN" lat_dec="0.0" lat_deg="0" lat_dir="U" lat_min="0" lat_sec="0" lon_dec="0.0" lon_deg="0" lon_dir="U" lon_min="0" lon_sec="0" /><airport airport-name="VAL D OR" alt="338" city="VAL D'OR" country="CANADA" iata="YVO" icao="CYVO" lat_dec="48.053000000000004" lat_deg="48" lat_dir="N" lat_min="3" lat_sec="12" lon_dec="-77.783" lon_deg="77" lon_dir="W" lon_min="46" lon_sec="58" /><airport airport-name="KUUJJUAQ" alt="40" city="QUUJJUAQ" country="CANADA" iata="YVP" icao="CYVP" lat_dec="58.096000000000004" lat_deg="58" lat_dir="N" lat_min="5" lat_sec="46" lon_dec="-68.42699999999999" lon_deg="68" lon_dir="W" lon_min="25" lon_sec="37" /><airport airport-name="NORMAN WELLS" alt="74" city="NORMAN WELLS" country="CANADA" iata="YVQ" icao="CYVQ" lat_dec="65.282" lat_deg="65" lat_dir="N" lat_min="16" lat_sec="57" lon_dec="-126.8" lon_deg="126" lon_dir="W" lon_min="48" lon_sec="1" /><airport airport-name="VANCOUVER INTERNATIONAL" alt="5" city="VANCOUVER" country="CANADA" iata="YVR" icao="CYVR" lat_dec="49.195" lat_deg="49" lat_dir="N" lat_min="11" lat_sec="42" lon_dec="-123.182" lon_deg="123" lon_dir="W" lon_min="10" lon_sec="55" /><airport airport-name="BUFFALO NARROWS" alt="441" city="BUFFALO NARROWS" country="CANADA" iata="YVT" icao="CYVT" lat_dec="55.842" lat_deg="55" lat_dir="N" lat_min="50" lat_sec="31" lon_dec="-108.41799999999999" lon_deg="108" lon_dir="W" lon_min="25" lon_sec="3" /><airport airport-name="WIARTON" alt="223" city="WIARTON" country="CANADA" iata="YVV" icao="CYVV" lat_dec="44.746" lat_deg="44" lat_dir="N" lat_min="44" lat_sec="45" lon_dec="-81.107" lon_deg="81" lon_dir="W" lon_min="6" lon_sec="26" /><airport airport-name="PETAWAWA" alt="131" city="PETAWAWA" country="CANADA" iata="YWA" icao="CYWA" lat_dec="45.952" lat_deg="45" lat_dir="N" lat_min="57" lat_sec="8" lon_dec="-77.319" lon_deg="77" lon_dir="W" lon_min="19" lon_sec="9" /><airport airport-name="WINNIPEG INTERNATIONAL" alt="239" city="WINNIPEG" country="CANADA" iata="YWG" icao="CYWG" lat_dec="49.91" lat_deg="49" lat_dir="N" lat_min="54" lat_sec="36" lon_dec="-97.234" lon_deg="97" lon_dir="W" lon_min="14" lon_sec="4" /><airport airport-name="WABUSH" alt="552" city="WABUSH" country="CANADA" iata="YWK" icao="CYWK" lat_dec="52.922" lat_deg="52" lat_dir="N" lat_min="55" lat_sec="19" lon_dec="-66.86399999999999" lon_deg="66" lon_dir="W" lon_min="51" lon_sec="52" /><airport airport-name="WILLIAMS LAKE" alt="941" city="WILLIAMS LAKE" country="CANADA" iata="YWL" icao="CYWL" lat_dec="52.183" lat_deg="52" lat_dir="N" lat_min="10" lat_sec="59" lon_dec="-122.054" lon_deg="122" lon_dir="W" lon_min="3" lon_sec="15" /><airport airport-name="nan" alt="0" city="LUPIN" country="CANADA" iata="nan" icao="CYWO" lat_dec="0.0" lat_deg="0" lat_dir="U" lat_min="0" lat_sec="0" lon_dec="0.0" lon_deg="0" lon_dir="U" lon_min="0" lon_sec="0" /><airport airport-name="nan" alt="0" city="WHITE RIVER" country="CANADA" iata="nan" icao="CYWR" lat_dec="0.0" lat_deg="0" lat_dir="U" lat_min="0" lat_sec="0" lon_dec="0.0" lon_deg="0" lon_dir="U" lon_min="0" lon_sec="0" /><airport airport-name="WRIGLEY" alt="151" city="WRIGLEY" country="CANADA" iata="YWY" icao="CYWY" lat_dec="63.208999999999996" lat_deg="63" lat_dir="N" lat_min="12" lat_sec="34" lon_dec="-123.43700000000001" lon_deg="123" lon_dir="W" lon_min="26" lon_sec="12" /><airport airport-name="CRANBROOK" alt="940" city="CRANBROOK" country="CANADA" iata="YXC" icao="CYXC" lat_dec="49.61" lat_deg="49" lat_dir="N" lat_min="36" lat_sec="37" lon_dec="-115.78200000000001" lon_deg="115" lon_dir="W" lon_min="46" lon_sec="57" /><airport airport-name="EDMONTON CITY CENTRE" alt="671" city="EDMONTON" country="CANADA" iata="YXD" icao="CYXD" lat_dec="53.573" lat_deg="53" lat_dir="N" lat_min="34" lat_sec="21" lon_dec="-113.521" lon_deg="113" lon_dir="W" lon_min="31" lon_sec="14" /><airport airport-name="SASKATOON J G DIEFENBAKER INTERNATIONAL" alt="504" city="SASKATOON" country="CANADA" iata="YXE" icao="CYXE" lat_dec="52.17100000000001" lat_deg="52" lat_dir="N" lat_min="10" lat_sec="15" lon_dec="-106.7" lon_deg="106" lon_dir="W" lon_min="41" lon_sec="59" /><airport airport-name="MEDICINE HAT" alt="717" city="MEDICINE HAT" country="CANADA" iata="YXH" icao="CYXH" lat_dec="50.019" lat_deg="50" lat_dir="N" lat_min="1" lat_sec="8" lon_dec="-110.721" lon_deg="110" lon_dir="W" lon_min="43" lon_sec="15" /><airport airport-name="nan" alt="0" city="KILLALOE" country="CANADA" iata="nan" icao="CYXI" lat_dec="0.0" lat_deg="0" lat_dir="U" lat_min="0" lat_sec="0" lon_dec="0.0" lon_deg="0" lon_dir="U" lon_min="0" lon_sec="0" /><airport airport-name="FORT ST JOHN" alt="695" city="FORT SAINT JOHN" country="CANADA" iata="YXJ" icao="CYXJ" lat_dec="56.238" lat_deg="56" lat_dir="N" lat_min="14" lat_sec="17" lon_dec="-120.74" lon_deg="120" lon_dir="W" lon_min="44" lon_sec="25" /><airport airport-name="SIOUX LOOKOUT" alt="391" city="SIOUX LOOKOUT" country="CANADA" iata="YXL" icao="CYXL" lat_dec="50.114" lat_deg="50" lat_dir="N" lat_min="6" lat_sec="52" lon_dec="-91.904" lon_deg="91" lon_dir="W" lon_min="54" lon_sec="15" /><airport airport-name="nan" alt="0" city="WHALE COVE" country="CANADA" iata="YXN" icao="CYXN" lat_dec="0.0" lat_deg="0" lat_dir="U" lat_min="0" lat_sec="0" lon_dec="0.0" lon_deg="0" lon_dir="U" lon_min="0" lon_sec="0" /><airport airport-name="PANGNIRTUNG" alt="23" city="PANGNIRTUNG" country="CANADA" iata="YXP" icao="CYXP" lat_dec="66.145" lat_deg="66" lat_dir="N" lat_min="8" lat_sec="42" lon_dec="-65.714" lon_deg="65" lon_dir="W" lon_min="42" lon_sec="49" /><airport airport-name="TIMISKAMING RGNL" alt="244" city="EARLTON" country="CANADA" iata="YXR" icao="CYXR" lat_dec="47.695" lat_deg="47" lat_dir="N" lat_min="41" lat_sec="42" lon_dec="-79.84899999999999" lon_deg="79" lon_dir="W" lon_min="50" lon_sec="56" /><airport airport-name="PRINCE GEORGE" alt="691" city="PRINCE GEORGE" country="CANADA" iata="YXS" icao="CYXS" lat_dec="53.888999999999996" lat_deg="53" lat_dir="N" lat_min="53" lat_sec="22" lon_dec="-122.679" lon_deg="122" lon_dir="W" lon_min="40" lon_sec="44" /><airport airport-name="TERRACE" alt="218" city="TERRACE" country="CANADA" iata="YXT" icao="CYXT" lat_dec="54.466" lat_deg="54" lat_dir="N" lat_min="27" lat_sec="59" lon_dec="-128.577" lon_deg="128" lon_dir="W" lon_min="34" lon_sec="39" /><airport airport-name="LONDON" alt="278" city="LONDON" country="CANADA" iata="YXU" icao="CYXU" lat_dec="43.036" lat_deg="43" lat_dir="N" lat_min="2" lat_sec="8" lon_dec="-81.154" lon_deg="81" lon_dir="W" lon_min="9" lon_sec="14" /><airport airport-name="ABBOTSFORD" alt="58" city="ABBOTSFORD" country="CANADA" iata="YXX" icao="CYXX" lat_dec="49.025" lat_deg="49" lat_dir="N" lat_min="1" lat_sec="31" lon_dec="-122.363" lon_deg="122" lon_dir="W" lon_min="21" lon_sec="48" /><airport airport-name="WHITEHORSE INTERNATIONAL" alt="707" city="WHITEHORSE" country="CANADA" iata="YXY" icao="CYXY" lat_dec="60.708999999999996" lat_deg="60" lat_dir="N" lat_min="42" lat_sec="34" lon_dec="-135.06799999999998" lon_deg="135" lon_dir="W" lon_min="4" lon_sec="6" /><airport airport-name="NORTH BAY" alt="371" city="NORTH BAY" country="CANADA" iata="YYB" icao="CYYB" lat_dec="46.364" lat_deg="46" lat_dir="N" lat_min="21" lat_sec="49" lon_dec="-79.423" lon_deg="79" lon_dir="W" lon_min="25" lon_sec="22" /><airport airport-name="CALGARY INTERNATIONAL" alt="1085" city="CALGARY" country="CANADA" iata="YYC" icao="CYYC" lat_dec="51.114" lat_deg="51" lat_dir="N" lat_min="6" lat_sec="50" lon_dec="-114.02" lon_deg="114" lon_dir="W" lon_min="1" lon_sec="13" /><airport airport-name="SMITHERS" alt="522" city="SMITHERS" country="CANADA" iata="YYD" icao="CYYD" lat_dec="54.825" lat_deg="54" lat_dir="N" lat_min="49" lat_sec="29" lon_dec="-127.18299999999999" lon_deg="127" lon_dir="W" lon_min="10" lon_sec="58" /><airport airport-name="FORT NELSON" alt="382" city="FORT NELSON" country="CANADA" iata="YYE" icao="CYYE" lat_dec="58.836000000000006" lat_deg="58" lat_dir="N" lat_min="50" lat_sec="11" lon_dec="-122.59700000000001" lon_deg="122" lon_dir="W" lon_min="35" lon_sec="49" /><airport airport-name="PENTICTON" alt="345" city="PENTICTON" country="CANADA" iata="YYF" icao="CYYF" lat_dec="49.463" lat_deg="49" lat_dir="N" lat_min="27" lat_sec="46" lon_dec="-119.602" lon_deg="119" lon_dir="W" lon_min="36" lon_sec="8" /><airport airport-name="CHARLOTTETOWN" alt="49" city="CHARLOTTETOWN" country="CANADA" iata="YYG" icao="CYYG" lat_dec="46.29" lat_deg="46" lat_dir="N" lat_min="17" lat_sec="24" lon_dec="-63.121" lon_deg="63" lon_dir="W" lon_min="7" lon_sec="16" /><airport airport-name="TALOYOAK" alt="29" city="SPENCE BAY" country="CANADA" iata="YYH" icao="CYYH" lat_dec="69.547" lat_deg="69" lat_dir="N" lat_min="32" lat_sec="48" lon_dec="-93.57700000000001" lon_deg="93" lon_dir="W" lon_min="34" lon_sec="36" /><airport airport-name="VICTORIA INTERNATIONAL" alt="20" city="VICTORIA" country="CANADA" iata="YYJ" icao="CYYJ" lat_dec="48.647" lat_deg="48" lat_dir="N" lat_min="38" lat_sec="49" lon_dec="-123.426" lon_deg="123" lon_dir="W" lon_min="25" lon_sec="33" /><airport airport-name="LYNN LAKE" alt="357" city="LYNN LAKE" country="CANADA" iata="YYL" icao="CYYL" lat_dec="56.864" lat_deg="56" lat_dir="N" lat_min="51" lat_sec="50" lon_dec="-101.07600000000001" lon_deg="101" lon_dir="W" lon_min="4" lon_sec="34" /><airport airport-name="SWIFT CURRENT" alt="817" city="SWIFT CURRENT" country="CANADA" iata="YYN" icao="CYYN" lat_dec="50.292" lat_deg="50" lat_dir="N" lat_min="17" lat_sec="31" lon_dec="-107.691" lon_deg="107" lon_dir="W" lon_min="41" lon_sec="26" /><airport airport-name="CHURCHILL" alt="29" city="CHURCHILL" country="CANADA" iata="YYQ" icao="CYYQ" lat_dec="58.739" lat_deg="58" lat_dir="N" lat_min="44" lat_sec="21" lon_dec="-94.065" lon_deg="94" lon_dir="W" lon_min="3" lon_sec="54" /><airport airport-name="GOOSE BAY" alt="49" city="GOOSE BAY" country="CANADA" iata="YYR" icao="CYYR" lat_dec="53.318999999999996" lat_deg="53" lat_dir="N" lat_min="19" lat_sec="9" lon_dec="-60.426" lon_deg="60" lon_dir="W" lon_min="25" lon_sec="33" /><airport airport-name="ST JOHNS INTERNATIONAL" alt="141" city="ST. JOHN'S" country="CANADA" iata="YYT" icao="CYYT" lat_dec="47.619" lat_deg="47" lat_dir="N" lat_min="37" lat_sec="7" lon_dec="-52.751999999999995" lon_deg="52" lon_dir="W" lon_min="45" lon_sec="7" /><airport airport-name="KAPUSKASING" alt="227" city="KAPUSKASING" country="CANADA" iata="YYU" icao="CYYU" lat_dec="49.413999999999994" lat_deg="49" lat_dir="N" lat_min="24" lat_sec="50" lon_dec="-82.46799999999999" lon_deg="82" lon_dir="W" lon_min="28" lon_sec="3" /><airport airport-name="ARMSTRONG" alt="323" city="ARMSTRONG" country="CANADA" iata="YYW" icao="CYYW" lat_dec="50.29" lat_deg="50" lat_dir="N" lat_min="17" lat_sec="25" lon_dec="-88.91" lon_deg="88" lon_dir="W" lon_min="54" lon_sec="35" /><airport airport-name="MONT JOLI" alt="53" city="MONT JOLI" country="CANADA" iata="YYY" icao="CYYY" lat_dec="48.608999999999995" lat_deg="48" lat_dir="N" lat_min="36" lat_sec="31" lon_dec="-68.208" lon_deg="68" lon_dir="W" lon_min="12" lon_sec="29" /><airport airport-name="LESTER B PEARSON INTERNATIONAL" alt="174" city="TORONTO" country="CANADA" iata="YYZ" icao="CYYZ" lat_dec="43.677" lat_deg="43" lat_dir="N" lat_min="40" lat_sec="38" lon_dec="-79.631" lon_deg="79" lon_dir="W" lon_min="37" lon_sec="50" /><airport airport-name="nan" alt="0" city="ASHCROFT" country="CANADA" iata="nan" icao="CYZA" lat_dec="0.0" lat_deg="0" lat_dir="U" lat_min="0" lat_sec="0" lon_dec="0.0" lon_deg="0" lon_dir="U" lon_min="0" lon_sec="0" /><airport airport-name="DOWNSVIEW" alt="199" city="TORONTO" country="CANADA" iata="YZD" icao="CYZD" lat_dec="43.742" lat_deg="43" lat_dir="N" lat_min="44" lat_sec="33" lon_dec="-79.46600000000001" lon_deg="79" lon_dir="W" lon_min="27" lon_sec="56" /><airport airport-name="GORE BAY MANITOULIN" alt="194" city="GORE BAY" country="CANADA" iata="YZE" icao="CYZE" lat_dec="45.885" lat_deg="45" lat_dir="N" lat_min="53" lat_sec="7" lon_dec="-82.568" lon_deg="82" lon_dir="W" lon_min="34" lon_sec="4" /><airport airport-name="YELLOWKNIFE" alt="206" city="YELLOWKNIFE" country="CANADA" iata="YZF" icao="CYZF" lat_dec="62.463" lat_deg="62" lat_dir="N" lat_min="27" lat_sec="46" lon_dec="-114.44" lon_deg="114" lon_dir="W" lon_min="26" lon_sec="25" /><airport airport-name="SLAVE LAKE" alt="583" city="SLAVE LAKE" country="CANADA" iata="YZH" icao="CYZH" lat_dec="55.293" lat_deg="55" lat_dir="N" lat_min="17" lat_sec="36" lon_dec="-114.77799999999999" lon_deg="114" lon_dir="W" lon_min="46" lon_sec="42" /><airport airport-name="SANDSPIT" alt="7" city="SANDSPIT" country="CANADA" iata="YZP" icao="CYZP" lat_dec="53.254" lat_deg="53" lat_dir="N" lat_min="15" lat_sec="15" lon_dec="-131.814" lon_deg="131" lon_dir="W" lon_min="48" lon_sec="50" /><airport airport-name="CHRIS HADFIELD" alt="182" city="SARNIA" country="CANADA" iata="YZR" icao="CYZR" lat_dec="42.998999999999995" lat_deg="42" lat_dir="N" lat_min="59" lat_sec="58" lon_dec="-82.309" lon_deg="82" lon_dir="W" lon_min="18" lon_sec="32" /><airport airport-name="PORT HARDY" alt="22" city="PORT HARDY" country="CANADA" iata="YZT" icao="CYZT" lat_dec="50.681000000000004" lat_deg="50" lat_dir="N" lat_min="40" lat_sec="50" lon_dec="-127.367" lon_deg="127" lon_dir="W" lon_min="22" lon_sec="0" /><airport airport-name="WHITECOURT" alt="783" city="WHITECOURT" country="CANADA" iata="YZU" icao="CYZU" lat_dec="54.144" lat_deg="54" lat_dir="N" lat_min="8" lat_sec="38" lon_dec="-115.787" lon_deg="115" lon_dir="W" lon_min="47" lon_sec="12" /><airport airport-name="SEPT ILES" alt="55" city="SEPT-ILES" country="CANADA" iata="YZV" icao="CYZV" lat_dec="50.223" lat_deg="50" lat_dir="N" lat_min="13" lat_sec="24" lon_dec="-66.266" lon_deg="66" lon_dir="W" lon_min="15" lon_sec="56" /><airport airport-name="TESLIN" alt="706" city="TESLIN" country="CANADA" iata="YZW" icao="CYZW" lat_dec="60.173" lat_deg="60" lat_dir="N" lat_min="10" lat_sec="22" lon_dec="-132.743" lon_deg="132" lon_dir="W" lon_min="44" lon_sec="34" /><airport airport-name="GREENWOOD" alt="29" city="GREENWOOD" country="CANADA" iata="YZX" icao="CYZX" lat_dec="44.983999999999995" lat_deg="44" lat_dir="N" lat_min="59" lat_sec="4" lon_dec="-64.917" lon_deg="64" lon_dir="W" lon_min="55" lon_sec="1" /><airport airport-name="FARO" alt="717" city="FARO" country="CANADA" iata="ZFA" icao="CZFA" lat_dec="62.208" lat_deg="62" lat_dir="N" lat_min="12" lat_sec="27" lon_dec="-133.376" lon_deg="133" lon_dir="W" lon_min="22" lon_sec="33" /><airport airport-name="FORT MCPHERSON" alt="44" city="FORT MCPHERSON" country="CANADA" iata="ZFM" icao="CZFM" lat_dec="67.408" lat_deg="67" lat_dir="N" lat_min="24" lat_sec="28" lon_dec="-134.86" lon_deg="134" lon_dir="W" lon_min="51" lon_sec="37" /><airport airport-name="nan" alt="0" city="NORTH BAY" country="CANADA" iata="nan" icao="CZNB" lat_dec="0.0" lat_deg="0" lat_dir="U" lat_min="0" lat_sec="0" lon_dec="0.0" lon_deg="0" lon_dir="U" lon_min="0" lon_sec="0" /><airport airport-name="nan" alt="0" city="CAPE PARRY" country="CANADA" iata="nan" icao="CZUE" lat_dec="0.0" lat_deg="0" lat_dir="U" lat_min="0" lat_sec="0" lon_dec="0.0" lon_deg="0" lon_dir="U" lon_min="0" lon_sec="0" /><airport airport-name="BLIDA" alt="164" city="BLIDA" country="ALGERIA" iata="nan" icao="DAAB" lat_dec="36.504" lat_deg="36" lat_dir="N" lat_min="30" lat_sec="13" lon_dec="2.8139999999999996" lon_deg="2" lon_dir="E" lon_min="48" lon_sec="51" /><airport airport-name="BOU SAADA" alt="460" city="BOU SAADA" country="ALGERIA" iata="nan" icao="DAAD" lat_dec="35.333" lat_deg="35" lat_dir="N" lat_min="19" lat_sec="57" lon_dec="4.206" lon_deg="4" lon_dir="E" lon_min="12" lon_sec="23" /><airport airport-name="SOUMMAM" alt="7" city="BEJAJA" country="ALGERIA" iata="BJA" icao="DAAE" lat_dec="36.711999999999996" lat_deg="36" lat_dir="N" lat_min="42" lat_sec="43" lon_dec="5.07" lon_deg="5" lon_dir="E" lon_min="4" lon_sec="11" /><airport airport-name="nan" alt="0" city="AOULEF" country="ALGERIA" iata="nan" icao="DAAF" lat_dec="0.0" lat_deg="0" lat_dir="U" lat_min="0" lat_sec="0" lon_dec="0.0" lon_deg="0" lon_dir="U" lon_min="0" lon_sec="0" /><airport airport-name="HOUARI BOUMEDIENE" alt="25" city="ALGIER" country="ALGERIA" iata="ALG" icao="DAAG" lat_dec="36.691" lat_deg="36" lat_dir="N" lat_min="41" lat_sec="27" lon_dec="3.215" lon_deg="3" lon_dir="E" lon_min="12" lon_sec="55" /><airport airport-name="TISKA" alt="969" city="DJANET" country="ALGERIA" iata="DJG" icao="DAAJ" lat_dec="24.293000000000003" lat_deg="24" lat_dir="N" lat_min="17" lat_sec="33" lon_dec="9.452" lon_deg="9" lon_dir="E" lon_min="27" lon_sec="8" /><airport airport-name="BOUFARIK" alt="103" city="BOUFARIK" country="ALGERIA" iata="nan" icao="DAAK" lat_dec="36.546" lat_deg="36" lat_dir="N" lat_min="32" lat_sec="45" lon_dec="2.8760000000000003" lon_deg="2" lon_dir="E" lon_min="52" lon_sec="34" /><airport airport-name="TELERGHMA" alt="758" city="TELERGMA" country="ALGERIA" iata="nan" icao="DAAM" lat_dec="36.109" lat_deg="36" lat_dir="N" lat_min="6" lat_sec="31" lon_dec="6.364" lon_deg="6" lon_dir="E" lon_min="21" lon_sec="52" /><airport airport-name="REGGANE" alt="292" city="REGGAN" country="ALGERIA" iata="nan" icao="DAAN" lat_dec="26.71" lat_deg="26" lat_dir="N" lat_min="42" lat_sec="36" lon_dec="0.28600000000000003" lon_deg="0" lon_dir="E" lon_min="17" lon_sec="8" /><airport airport-name="ILLIZI" alt="542" city="ILLIZI" country="ALGERIA" iata="VVZ" icao="DAAP" lat_dec="26.573" lat_deg="26" lat_dir="N" lat_min="34" lat_sec="24" lon_dec="8.484" lon_deg="8" lon_dir="E" lon_min="29" lon_sec="1" /><airport airport-name="AIN OUSSERA" alt="650" city="AIN OUSSERA" country="ALGERIA" iata="nan" icao="DAAQ" lat_dec="35.525" lat_deg="35" lat_dir="N" lat_min="31" lat_sec="31" lon_dec="2.8789999999999996" lon_deg="2" lon_dir="E" lon_min="52" lon_sec="43" /><airport airport-name="SETIF AIN ARNAT" alt="1025" city="SETIF" country="ALGERIA" iata="GSF" icao="DAAS" lat_dec="36.178000000000004" lat_deg="36" lat_dir="N" lat_min="10" lat_sec="41" lon_dec="5.324" lon_deg="5" lon_dir="E" lon_min="19" lon_sec="28" /><airport airport-name="TAMANRASSET" alt="1378" city="TAMANRASSET" country="ALGERIA" iata="TMR" icao="DAAT" lat_dec="22.811" lat_deg="22" lat_dir="N" lat_min="48" lat_sec="39" lon_dec="5.4510000000000005" lon_deg="5" lon_dir="E" lon_min="27" lon_sec="3" /><airport airport-name="JIJEL" alt="11" city="JIJEL" country="ALGERIA" iata="GJL" icao="DAAV" lat_dec="36.795" lat_deg="36" lat_dir="N" lat_min="47" lat_sec="42" lon_dec="5.872999999999999" lon_deg="5" lon_dir="E" lon_min="52" lon_sec="24" /><airport airport-name="nan" alt="0" city="BORDJ OMAR DRISS" country="ALGERIA" iata="nan" icao="DAAW" lat_dec="0.0" lat_deg="0" lat_dir="U" lat_min="0" lat_sec="0" lon_dec="0.0" lon_deg="0" lon_dir="U" lon_min="0" lon_sec="0" /><airport airport-name="nan" alt="0" city="CHERAGAS" country="ALGERIA" iata="nan" icao="DAAX" lat_dec="0.0" lat_deg="0" lat_dir="U" lat_min="0" lat_sec="0" lon_dec="0.0" lon_deg="0" lon_dir="U" lon_min="0" lon_sec="0" /><airport airport-name="MECHERIA" alt="1176" city="MECHERIA" country="ALGERIA" iata="nan" icao="DAAY" lat_dec="33.536" lat_deg="33" lat_dir="N" lat_min="32" lat_sec="9" lon_dec="-0.242" lon_deg="0" lon_dir="W" lon_min="14" lon_sec="32" /><airport airport-name="RELIZANE" alt="86" city="RELIZANE" country="ALGERIA" iata="nan" icao="DAAZ" lat_dec="35.751999999999995" lat_deg="35" lat_dir="N" lat_min="45" lat_sec="8" lon_dec="0.626" lon_deg="0" lon_dir="E" lon_min="37" lon_sec="34" /><airport airport-name="ANNABA" alt="5" city="ANNABA" country="ALGERIA" iata="AAE" icao="DABB" lat_dec="36.821999999999996" lat_deg="36" lat_dir="N" lat_min="49" lat_sec="20" lon_dec="7.809" lon_deg="7" lon_dir="E" lon_min="48" lon_sec="33" /><airport airport-name="MOHAMED BOUDIAF INTERNATIONAL" alt="691" city="CONSTANTINE" country="ALGERIA" iata="CZL" icao="DABC" lat_dec="36.277" lat_deg="36" lat_dir="N" lat_min="16" lat_sec="36" lon_dec="6.624" lon_deg="6" lon_dir="E" lon_min="37" lon_sec="26" /><airport airport-name="nan" alt="0" city="SKIKDA" country="ALGERIA" iata="nan" icao="DABP" lat_dec="0.0" lat_deg="0" lat_dir="U" lat_min="0" lat_sec="0" lon_dec="0.0" lon_deg="0" lon_dir="U" lon_min="0" lon_sec="0" /><airport airport-name="CHEIKH LARBI TEBESSI" alt="812" city="TEBESSA" country="ALGERIA" iata="TEE" icao="DABS" lat_dec="35.431" lat_deg="35" lat_dir="N" lat_min="25" lat_sec="53" lon_dec="8.121" lon_deg="8" lon_dir="E" lon_min="7" lon_sec="14" /><airport airport-name="nan" alt="0" city="BATNA" country="ALGERIA" iata="nan" icao="DABT" lat_dec="0.0" lat_deg="0" lat_dir="U" lat_min="0" lat_sec="0" lon_dec="0.0" lon_deg="0" lon_dir="U" lon_min="0" lon_sec="0" /><airport airport-name="nan" alt="0" city="DARRA-I-SOOF" country="AFGHANISTAN" iata="nan" icao="DADF" lat_dec="0.0" lat_deg="0" lat_dir="U" lat_min="0" lat_sec="0" lon_dec="0.0" lon_deg="0" lon_dir="U" lon_min="0" lon_sec="0" /><airport airport-name="HASSI R MEL" alt="775" city="TILREMPT" country="ALGERIA" iata="HRM" icao="DAFH" lat_dec="32.93" lat_deg="32" lat_dir="N" lat_min="55" lat_sec="47" lon_dec="3.312" lon_deg="3" lon_dir="E" lon_min="18" lon_sec="44" /><airport airport-name="nan" alt="0" city="DJELFA" country="ALGERIA" iata="nan" icao="DAFI" lat_dec="0.0" lat_deg="0" lat_dir="U" lat_min="0" lat_sec="0" lon_dec="0.0" lon_deg="0" lon_dir="U" lon_min="0" lon_sec="0" /><airport airport-name="BOU CHEKIF" alt="990" city="TIARET" country="ALGERIA" iata="TID" icao="DAOB" lat_dec="35.341" lat_deg="35" lat_dir="N" lat_min="20" lat_sec="28" lon_dec="1.463" lon_deg="1" lon_dir="E" lon_min="27" lon_sec="47" /><airport airport-name="nan" alt="0" city="BECHAR" country="ALGERIA" iata="CBH" icao="DAOC" lat_dec="0.0" lat_deg="0" lat_dir="U" lat_min="0" lat_sec="0" lon_dec="0.0" lon_deg="0" lon_dir="U" lon_min="0" lon_sec="0" /><airport airport-name="BOU SFER" alt="57" city="BOU SFER" country="ALGERIA" iata="nan" icao="DAOE" lat_dec="35.735" lat_deg="35" lat_dir="N" lat_min="44" lat_sec="7" lon_dec="-0.805" lon_deg="0" lon_dir="W" lon_min="48" lon_sec="19" /><airport airport-name="TINDOUF" alt="443" city="TINDOUF" country="ALGERIA" iata="TIN" icao="DAOF" lat_dec="27.7" lat_deg="27" lat_dir="N" lat_min="42" lat_sec="1" lon_dec="-8.167" lon_deg="8" lon_dir="W" lon_min="10" lon_sec="1" /><airport airport-name="ECH CHELIFF" alt="142" city="ECH-CHELIFF" country="ALGERIA" iata="QAS" icao="DAOI" lat_dec="36.213" lat_deg="36" lat_dir="N" lat_min="12" lat_sec="45" lon_dec="1.3319999999999999" lon_deg="1" lon_dir="E" lon_min="19" lon_sec="54" /><airport airport-name="TAFARAOUI" alt="112" city="ORAN" country="ALGERIA" iata="TAF" icao="DAOL" lat_dec="35.542" lat_deg="35" lat_dir="N" lat_min="32" lat_sec="32" lon_dec="-0.532" lon_deg="0" lon_dir="W" lon_min="31" lon_sec="56" /><airport airport-name="ZENATA" alt="249" city="TLEMCEN" country="ALGERIA" iata="TLM" icao="DAON" lat_dec="35.016999999999996" lat_deg="35" lat_dir="N" lat_min="1" lat_sec="0" lon_dec="-1.45" lon_deg="1" lon_dir="W" lon_min="27" lon_sec="0" /><airport airport-name="ES SENIA" alt="90" city="ORAN" country="ALGERIA" iata="ORN" icao="DAOO" lat_dec="35.624" lat_deg="35" lat_dir="N" lat_min="37" lat_sec="25" lon_dec="-0.621" lon_deg="0" lon_dir="W" lon_min="37" lon_sec="16" /><airport airport-name="SIDI BEL ABBES" alt="492" city="SIDI BEL ABBES" country="ALGERIA" iata="nan" icao="DAOS" lat_dec="35.172" lat_deg="35" lat_dir="N" lat_min="10" lat_sec="18" lon_dec="-0.593" lon_deg="0" lon_dir="W" lon_min="35" lon_sec="35" /><airport airport-name="GHRISS" alt="514" city="GHRISS" country="ALGERIA" iata="MUW" icao="DAOV" lat_dec="35.208" lat_deg="35" lat_dir="N" lat_min="12" lat_sec="27" lon_dec="0.147" lon_deg="0" lon_dir="E" lon_min="8" lon_sec="49" /><airport airport-name="nan" alt="0" city="SAMANGAN" country="AFGHANISTAN" iata="nan" icao="DASM" lat_dec="0.0" lat_deg="0" lat_dir="U" lat_min="0" lat_sec="0" lon_dec="0.0" lon_deg="0" lon_dir="U" lon_min="0" lon_sec="0" /><airport airport-name="nan" alt="0" city="IN GUEZZAM" country="ALGERIA" iata="INF" icao="DATG" lat_dec="0.0" lat_deg="0" lat_dir="U" lat_min="0" lat_sec="0" lon_dec="0.0" lon_deg="0" lon_dir="U" lon_min="0" lon_sec="0" /><airport airport-name="nan" alt="0" city="BORDJ MOKHTAR" country="ALGERIA" iata="BMW" icao="DATM" lat_dec="0.0" lat_deg="0" lat_dir="U" lat_min="0" lat_sec="0" lon_dec="0.0" lon_deg="0" lon_dir="U" lon_min="0" lon_sec="0" /><airport airport-name="TOUAT CHEIKH SIDI MOHAMED BELKEBIR" alt="281" city="ADRAR" country="ALGERIA" iata="AZR" icao="DAUA" lat_dec="27.837" lat_deg="27" lat_dir="N" lat_min="50" lat_sec="15" lon_dec="-0.18600000000000003" lon_deg="0" lon_dir="W" lon_min="11" lon_sec="11" /><airport airport-name="BISKRA" alt="89" city="BISKRA" country="ALGERIA" iata="BSK" icao="DAUB" lat_dec="34.793" lat_deg="34" lat_dir="N" lat_min="47" lat_sec="35" lon_dec="5.7379999999999995" lon_deg="5" lon_dir="E" lon_min="44" lon_sec="17" /><airport airport-name="EL GOLEA" alt="399" city="EL GOLEA" country="ALGERIA" iata="ELG" icao="DAUE" lat_dec="30.570999999999998" lat_deg="30" lat_dir="N" lat_min="34" lat_sec="16" lon_dec="2.859" lon_deg="2" lon_dir="E" lon_min="51" lon_sec="34" /><airport airport-name="NOUMERATE" alt="461" city="GHARDAIA" country="ALGERIA" iata="GHA" icao="DAUG" lat_dec="32.384" lat_deg="32" lat_dir="N" lat_min="23" lat_sec="2" lon_dec="3.7939999999999996" lon_deg="3" lon_dir="E" lon_min="47" lon_sec="38" /><airport airport-name="OUED IRARA" alt="142" city="HASSI-MESSAOUD" country="ALGERIA" iata="HME" icao="DAUH" lat_dec="31.673000000000002" lat_deg="31" lat_dir="N" lat_min="40" lat_sec="22" lon_dec="6.14" lon_deg="6" lon_dir="E" lon_min="8" lon_sec="25" /><airport airport-name="IN SALAH" alt="270" city="IN SALAH" country="ALGERIA" iata="INZ" icao="DAUI" lat_dec="27.250999999999998" lat_deg="27" lat_dir="N" lat_min="15" lat_sec="3" lon_dec="2.512" lon_deg="2" lon_dir="E" lon_min="30" lon_sec="43" /><airport airport-name="SIDI MAHDI" alt="86" city="TOUGGOURT" country="ALGERIA" iata="TGR" icao="DAUK" lat_dec="33.068000000000005" lat_deg="33" lat_dir="N" lat_min="4" lat_sec="4" lon_dec="6.0889999999999995" lon_deg="6" lon_dir="E" lon_min="5" lon_sec="19" /><airport airport-name="LAGHOUAT" alt="766" city="LAGHOUAT" country="ALGERIA" iata="LOO" icao="DAUL" lat_dec="33.764" lat_deg="33" lat_dir="N" lat_min="45" lat_sec="50" lon_dec="2.927" lon_deg="2" lon_dir="E" lon_min="55" lon_sec="38" /><airport airport-name="TIMIMOUN" alt="314" city="TIMIMOUN" country="ALGERIA" iata="TMX" icao="DAUT" lat_dec="29.237" lat_deg="29" lat_dir="N" lat_min="14" lat_sec="13" lon_dec="0.276" lon_deg="0" lon_dir="E" lon_min="16" lon_sec="33" /><airport airport-name="OUARGLA" alt="150" city="OUARGLA" country="ALGERIA" iata="OGX" icao="DAUU" lat_dec="31.916999999999998" lat_deg="31" lat_dir="N" lat_min="55" lat_sec="2" lon_dec="5.412999999999999" lon_deg="5" lon_dir="E" lon_min="24" lon_sec="46" /><airport airport-name="IN AMENAS" alt="563" city="ZARZAITINE" country="ALGERIA" iata="IAM" icao="DAUZ" lat_dec="28.051" lat_deg="28" lat_dir="N" lat_min="3" lat_sec="5" lon_dec="9.642999999999999" lon_deg="9" lon_dir="E" lon_min="38" lon_sec="34" /><airport airport-name="COTONOU CADJEHOUN" alt="6" city="COTONOU" country="BENIN" iata="COO" icao="DBBB" lat_dec="6.357" lat_deg="6" lat_dir="N" lat_min="21" lat_sec="26" lon_dec="2.384" lon_deg="2" lon_dir="E" lon_min="23" lon_sec="3" /><airport airport-name="nan" alt="0" city="CANA" country="BENIN" iata="nan" icao="DBBC" lat_dec="0.0" lat_deg="0" lat_dir="U" lat_min="0" lat_sec="0" lon_dec="0.0" lon_deg="0" lon_dir="U" lon_min="0" lon_sec="0" /><airport airport-name="nan" alt="0" city="DJOUGOU" country="BENIN" iata="nan" icao="DBBD" lat_dec="0.0" lat_deg="0" lat_dir="U" lat_min="0" lat_sec="0" lon_dec="0.0" lon_deg="0" lon_dir="U" lon_min="0" lon_sec="0" /><airport airport-name="nan" alt="0" city="KANDI" country="BENIN" iata="KDC" icao="DBBK" lat_dec="0.0" lat_deg="0" lat_dir="U" lat_min="0" lat_sec="0" lon_dec="0.0" lon_deg="0" lon_dir="U" lon_min="0" lon_sec="0" /><airport airport-name="nan" alt="0" city="NATITINGOU" country="BENIN" iata="NAE" icao="DBBN" lat_dec="0.0" lat_deg="0" lat_dir="U" lat_min="0" lat_sec="0" lon_dec="0.0" lon_deg="0" lon_dir="U" lon_min="0" lon_sec="0" /><airport airport-name="nan" alt="0" city="PORGA" country="BENIN" iata="nan" icao="DBBO" lat_dec="0.0" lat_deg="0" lat_dir="U" lat_min="0" lat_sec="0" lon_dec="0.0" lon_deg="0" lon_dir="U" lon_min="0" lon_sec="0" /><airport airport-name="PARAKOU" alt="386" city="PARAKOU" country="BENIN" iata="PKO" icao="DBBP" lat_dec="9.357000000000001" lat_deg="9" lat_dir="N" lat_min="21" lat_sec="25" lon_dec="2.609" lon_deg="2" lon_dir="E" lon_min="36" lon_sec="32" /><airport airport-name="nan" alt="0" city="BEMBEREKE" country="BENIN" iata="nan" icao="DBBR" lat_dec="0.0" lat_deg="0" lat_dir="U" lat_min="0" lat_sec="0" lon_dec="0.0" lon_deg="0" lon_dir="U" lon_min="0" lon_sec="0" /><airport airport-name="nan" alt="0" city="SAVE" country="BENIN" iata="nan" icao="DBBS" lat_dec="0.0" lat_deg="0" lat_dir="U" lat_min="0" lat_sec="0" lon_dec="0.0" lon_deg="0" lon_dir="U" lon_min="0" lon_sec="0" /><airport airport-name="nan" alt="0" city="KAYA" country="BURKINA FASO" iata="nan" icao="DFCA" lat_dec="0.0" lat_deg="0" lat_dir="U" lat_min="0" lat_sec="0" lon_dec="0.0" lon_deg="0" lon_dir="U" lon_min="0" lon_sec="0" /><airport airport-name="nan" alt="0" city="BARSALOGHO" country="BURKINA FASO" iata="nan" icao="DFCB" lat_dec="0.0" lat_deg="0" lat_dir="U" lat_min="0" lat_sec="0" lon_dec="0.0" lon_deg="0" lon_dir="U" lon_min="0" lon_sec="0" /><airport airport-name="nan" alt="0" city="OUAHIGOUYA" country="BURKINA FASO" iata="OUG" icao="DFCC" lat_dec="0.0" lat_deg="0" lat_dir="U" lat_min="0" lat_sec="0" lon_dec="0.0" lon_deg="0" lon_dir="U" lon_min="0" lon_sec="0" /><airport airport-name="nan" alt="0" city="DIDYR" country="BURKINA FASO" iata="nan" icao="DFCD" lat_dec="0.0" lat_deg="0" lat_dir="U" lat_min="0" lat_sec="0" lon_dec="0.0" lon_deg="0" lon_dir="U" lon_min="0" lon_sec="0" /><airport airport-name="nan" alt="0" city="BATIE" country="BURKINA FASO" iata="nan" icao="DFCE" lat_dec="0.0" lat_deg="0" lat_dir="U" lat_min="0" lat_sec="0" lon_dec="0.0" lon_deg="0" lon_dir="U" lon_min="0" lon_sec="0" /><airport airport-name="nan" alt="0" city="KONGOUSSI" country="BURKINA FASO" iata="nan" icao="DFCG" lat_dec="0.0" lat_deg="0" lat_dir="U" lat_min="0" lat_sec="0" lon_dec="0.0" lon_deg="0" lon_dir="U" lon_min="0" lon_sec="0" /><airport airport-name="nan" alt="0" city="TITAO" country="BURKINA FASO" iata="nan" icao="DFCI" lat_dec="0.0" lat_deg="0" lat_dir="U" lat_min="0" lat_sec="0" lon_dec="0.0" lon_deg="0" lon_dir="U" lon_min="0" lon_sec="0" /><airport airport-name="nan" alt="0" city="DJIBO" country="BURKINA FASO" iata="nan" icao="DFCJ" lat_dec="0.0" lat_deg="0" lat_dir="U" lat_min="0" lat_sec="0" lon_dec="0.0" lon_deg="0" lon_dir="U" lon_min="0" lon_sec="0" /><airport airport-name="nan" alt="0" city="KOUDOUGOU" country="BURKINA FASO" iata="nan" icao="DFCK" lat_dec="0.0" lat_deg="0" lat_dir="U" lat_min="0" lat_sec="0" lon_dec="0.0" lon_deg="0" lon_dir="U" lon_min="0" lon_sec="0" /><airport airport-name="nan" alt="0" city="LEO" country="BURKINA FASO" iata="nan" icao="DFCL" lat_dec="0.0" lat_deg="0" lat_dir="U" lat_min="0" lat_sec="0" lon_dec="0.0" lon_deg="0" lon_dir="U" lon_min="0" lon_sec="0" /><airport airport-name="nan" alt="0" city="MANGA" country="BURKINA FASO" iata="nan" icao="DFCM" lat_dec="0.0" lat_deg="0" lat_dir="U" lat_min="0" lat_sec="0" lon_dec="0.0" lon_deg="0" lon_dir="U" lon_min="0" lon_sec="0" /><airport airport-name="nan" alt="0" city="BOROMO" country="BURKINA FASO" iata="nan" icao="DFCO" lat_dec="0.0" lat_deg="0" lat_dir="U" lat_min="0" lat_sec="0" lon_dec="0.0" lon_deg="0" lon_dir="U" lon_min="0" lon_sec="0" /><airport airport-name="nan" alt="0" city="PO" country="BURKINA FASO" iata="nan" icao="DFCP" lat_dec="0.0" lat_deg="0" lat_dir="U" lat_min="0" lat_sec="0" lon_dec="0.0" lon_deg="0" lon_dir="U" lon_min="0" lon_sec="0" /><airport airport-name="nan" alt="0" city="POURA" country="BURKINA FASO" iata="nan" icao="DFCR" lat_dec="0.0" lat_deg="0" lat_dir="U" lat_min="0" lat_sec="0" lon_dec="0.0" lon_deg="0" lon_dir="U" lon_min="0" lon_sec="0" /><airport airport-name="nan" alt="0" city="SEGUENEGA" country="BURKINA FASO" iata="nan" icao="DFCS" lat_dec="0.0" lat_deg="0" lat_dir="U" lat_min="0" lat_sec="0" lon_dec="0.0" lon_deg="0" lon_dir="U" lon_min="0" lon_sec="0" /><airport airport-name="nan" alt="0" city="TENADO" country="BURKINA FASO" iata="nan" icao="DFCT" lat_dec="0.0" lat_deg="0" lat_dir="U" lat_min="0" lat_sec="0" lon_dec="0.0" lon_deg="0" lon_dir="U" lon_min="0" lon_sec="0" /><airport airport-name="nan" alt="0" city="GOURCY" country="BURKINA FASO" iata="nan" icao="DFCU" lat_dec="0.0" lat_deg="0" lat_dir="U" lat_min="0" lat_sec="0" lon_dec="0.0" lon_deg="0" lon_dir="U" lon_min="0" lon_sec="0" /><airport airport-name="nan" alt="0" city="YAKO" country="BURKINA FASO" iata="nan" icao="DFCY" lat_dec="0.0" lat_deg="0" lat_dir="U" lat_min="0" lat_sec="0" lon_dec="0.0" lon_deg="0" lon_dir="U" lon_min="0" lon_sec="0" /><airport airport-name="nan" alt="0" city="BOULSA" country="BURKINA FASO" iata="nan" icao="DFEA" lat_dec="0.0" lat_deg="0" lat_dir="U" lat_min="0" lat_sec="0" lon_dec="0.0" lon_deg="0" lon_dir="U" lon_min="0" lon_sec="0" /><airport airport-name="nan" alt="0" city="BOGANDE" country="BURKINA FASO" iata="nan" icao="DFEB" lat_dec="0.0" lat_deg="0" lat_dir="U" lat_min="0" lat_sec="0" lon_dec="0.0" lon_deg="0" lon_dir="U" lon_min="0" lon_sec="0" /><airport airport-name="nan" alt="0" city="KOMIN-YANGA" country="BURKINA FASO" iata="nan" icao="DFEC" lat_dec="0.0" lat_deg="0" lat_dir="U" lat_min="0" lat_sec="0" lon_dec="0.0" lon_deg="0" lon_dir="U" lon_min="0" lon_sec="0" /><airport airport-name="nan" alt="0" city="DIAPAGA" country="BURKINA FASO" iata="nan" icao="DFED" lat_dec="0.0" lat_deg="0" lat_dir="U" lat_min="0" lat_sec="0" lon_dec="0.0" lon_deg="0" lon_dir="U" lon_min="0" lon_sec="0" /><airport airport-name="nan" alt="0" city="DORI" country="BURKINA FASO" iata="DOR" icao="DFEE" lat_dec="0.0" lat_deg="0" lat_dir="U" lat_min="0" lat_sec="0" lon_dec="0.0" lon_deg="0" lon_dir="U" lon_min="0" lon_sec="0" /><airport airport-name="nan" alt="0" city="FADA N'GOURMA" country="BURKINA FASO" iata="FNG" icao="DFEF" lat_dec="0.0" lat_deg="0" lat_dir="U" lat_min="0" lat_sec="0" lon_dec="0.0" lon_deg="0" lon_dir="U" lon_min="0" lon_sec="0" /><airport airport-name="nan" alt="0" city="GOROM GOROM" country="BURKINA FASO" iata="XGG" icao="DFEG" lat_dec="0.0" lat_deg="0" lat_dir="U" lat_min="0" lat_sec="0" lon_dec="0.0" lon_deg="0" lon_dir="U" lon_min="0" lon_sec="0" /><airport airport-name="nan" alt="0" city="KOUPELA" country="BURKINA FASO" iata="nan" icao="DFEK" lat_dec="0.0" lat_deg="0" lat_dir="U" lat_min="0" lat_sec="0" lon_dec="0.0" lon_deg="0" lon_dir="U" lon_min="0" lon_sec="0" /><airport airport-name="nan" alt="0" city="KANTCHARI" country="BURKINA FASO" iata="XKA" icao="DFEL" lat_dec="0.0" lat_deg="0" lat_dir="U" lat_min="0" lat_sec="0" lon_dec="0.0" lon_deg="0" lon_dir="U" lon_min="0" lon_sec="0" /><airport airport-name="nan" alt="0" city="TAMBAO" country="BURKINA FASO" iata="nan" icao="DFEM" lat_dec="0.0" lat_deg="0" lat_dir="U" lat_min="0" lat_sec="0" lon_dec="0.0" lon_deg="0" lon_dir="U" lon_min="0" lon_sec="0" /><airport airport-name="nan" alt="0" city="ZORGO" country="BURKINA FASO" iata="nan" icao="DFEO" lat_dec="0.0" lat_deg="0" lat_dir="U" lat_min="0" lat_sec="0" lon_dec="0.0" lon_deg="0" lon_dir="U" lon_min="0" lon_sec="0" /><airport airport-name="nan" alt="0" city="PAMA" country="BURKINA FASO" iata="nan" icao="DFEP" lat_dec="0.0" lat_deg="0" lat_dir="U" lat_min="0" lat_sec="0" lon_dec="0.0" lon_deg="0" lon_dir="U" lon_min="0" lon_sec="0" /><airport airport-name="nan" alt="0" city="ARLI" country="BURKINA FASO" iata="nan" icao="DFER" lat_dec="0.0" lat_deg="0" lat_dir="U" lat_min="0" lat_sec="0" lon_dec="0.0" lon_deg="0" lon_dir="U" lon_min="0" lon_sec="0" /><airport airport-name="nan" alt="0" city="SEBBA" country="BURKINA FASO" iata="nan" icao="DFES" lat_dec="0.0" lat_deg="0" lat_dir="U" lat_min="0" lat_sec="0" lon_dec="0.0" lon_deg="0" lon_dir="U" lon_min="0" lon_sec="0" /><airport airport-name="nan" alt="0" city="TENKODOGO" country="BURKINA FASO" iata="TEG" icao="DFET" lat_dec="0.0" lat_deg="0" lat_dir="U" lat_min="0" lat_sec="0" lon_dec="0.0" lon_deg="0" lon_dir="U" lon_min="0" lon_sec="0" /><airport airport-name="nan" alt="0" city="OUARGAYE" 